[{"lat":35.687,"lng":139.7495,"label":"Tokyo","importance":1},{"lat":40.7519,"lng":-73.982,"label":"New York","importance":1},{"lat":19.4444,"lng":-99.1329,"label":"Mexico City","importance":1},{"lat":19.0189,"lng":72.855,"label":"Mumbai","importance":1},{"lat":-23.5567,"lng":-46.627,"label":"São Paulo","importance":1},{"lat":28.6719,"lng":77.2281,"label":"Delhi","importance":1},{"lat":31.2184,"lng":121.4346,"label":"Shanghai","importance":1},{"lat":22.4969,"lng":88.3227,"label":"Kolkata","importance":1},{"lat":23.725,"lng":90.4066,"label":"Dhaka","importance":1},{"lat":-34.6006,"lng":-58.3995,"label":"Buenos Aires","importance":1},{"lat":33.9919,"lng":-118.1819,"label":"Los Angeles","importance":1},{"lat":24.8719,"lng":66.9881,"label":"Karachi","importance":1},{"lat":30.0519,"lng":31.248,"label":"Cairo","importance":1},{"lat":-22.9231,"lng":-43.227,"label":"Rio de Janeiro","importance":1},{"lat":34.752,"lng":135.4582,"label":"Ōsaka","importance":1},{"lat":39.9308,"lng":116.3863,"label":"Beijing","importance":1},{"lat":14.6061,"lng":120.9803,"label":"Manila","importance":1},{"lat":55.7541,"lng":37.6136,"label":"Moscow","importance":1},{"lat":41.1069,"lng":29.0081,"label":"Istanbul","importance":1},{"lat":48.8686,"lng":2.3314,"label":"Paris","importance":1},{"lat":37.5683,"lng":126.9978,"label":"Seoul","importance":1},{"lat":6.4452,"lng":3.3896,"label":"Lagos","importance":1},{"lat":-6.1725,"lng":106.8275,"label":"Jakarta","importance":1},{"lat":41.8319,"lng":-87.752,"label":"Chicago","importance":1},{"lat":23.1469,"lng":113.3231,"label":"Guangzhou","importance":1},{"lat":51.5019,"lng":-0.1187,"label":"London","importance":1},{"lat":-12.0461,"lng":-77.052,"label":"Lima","importance":1},{"lat":35.6739,"lng":51.4224,"label":"Tehran","importance":1},{"lat":-4.3278,"lng":15.313,"label":"Kinshasa","importance":1},{"lat":4.5984,"lng":-74.0853,"label":"Bogota","importance":1},{"lat":22.5543,"lng":114.1202,"label":"Shenzhen","importance":1},{"lat":30.582,"lng":114.2681,"label":"Wuhan","importance":1},{"lat":22.3069,"lng":114.1831,"label":"Hong Kong","importance":1},{"lat":39.132,"lng":117.1981,"label":"Tianjin","importance":1},{"lat":13.0919,"lng":80.2781,"label":"Chennai","importance":1},{"lat":25.0358,"lng":121.5683,"label":"Taipei","importance":1},{"lat":12.9719,"lng":77.5581,"label":"Bengaluru","importance":1},{"lat":13.7519,"lng":100.5147,"label":"Bangkok","importance":1},{"lat":31.5619,"lng":74.3481,"label":"Lahore","importance":1},{"lat":29.5669,"lng":106.593,"label":"Chongqing","importance":1},{"lat":17.4019,"lng":78.478,"label":"Hyderabad","importance":1},{"lat":16.5337,"lng":80.5243,"label":"Amaravati","importance":1},{"lat":-33.4481,"lng":-70.669,"label":"Santiago","importance":1},{"lat":25.7896,"lng":-80.2261,"label":"Miami","importance":1},{"lat":-19.9131,"lng":-43.9169,"label":"Belo Horizonte","importance":1},{"lat":40.402,"lng":-3.6853,"label":"Madrid","importance":1},{"lat":40.0019,"lng":-75.1719,"label":"Philadelphia","importance":1},{"lat":23.032,"lng":72.5781,"label":"Ahmedabad","importance":1},{"lat":10.782,"lng":106.6931,"label":"Ho Chi Minh City","importance":1},{"lat":43.7019,"lng":-79.422,"label":"Toronto","importance":1},{"lat":1.295,"lng":103.8539,"label":"Singapore","importance":2},{"lat":-8.8363,"lng":13.2325,"label":"Luanda","importance":2},{"lat":33.3406,"lng":44.3919,"label":"Baghdad","importance":2},{"lat":41.3852,"lng":2.1814,"label":"Barcelona","importance":2},{"lat":22.5804,"lng":88.3299,"label":"Haora","importance":2},{"lat":32.822,"lng":-96.842,"label":"Dallas","importance":2},{"lat":41.8069,"lng":123.448,"label":"Shenyeng","importance":2},{"lat":15.59,"lng":32.5322,"label":"Khartoum","importance":2},{"lat":18.532,"lng":73.8481,"label":"Pune","importance":2},{"lat":-33.9181,"lng":151.1832,"label":"Sydney","importance":2},{"lat":59.941,"lng":30.3141,"label":"St.  Petersburg","importance":2},{"lat":22.3319,"lng":91.798,"label":"Chattogram","importance":2},{"lat":23.0508,"lng":113.7428,"label":"Dongguan","importance":2},{"lat":33.832,"lng":-84.4019,"label":"Atlanta","importance":2},{"lat":42.3319,"lng":-71.072,"label":"Boston","importance":2},{"lat":24.6428,"lng":46.7708,"label":"Riyadh","importance":2},{"lat":29.8219,"lng":-95.3419,"label":"Houston","importance":2},{"lat":21.0353,"lng":105.8481,"label":"Hanoi","importance":2},{"lat":38.9015,"lng":-77.0114,"label":"Washington,  D.C.","importance":2},{"lat":20.672,"lng":-103.332,"label":"Guadalajara","importance":2},{"lat":-37.8181,"lng":144.9731,"label":"Melbourne","importance":2},{"lat":31.202,"lng":29.948,"label":"Alexandria","importance":2},{"lat":30.6719,"lng":104.0681,"label":"Chengdu","importance":2},{"lat":42.3319,"lng":-83.082,"label":"Detroit","importance":2},{"lat":16.7853,"lng":96.1647,"label":"Yangon","importance":2},{"lat":34.277,"lng":108.8931,"label":"Xian","importance":2},{"lat":-30.0481,"lng":-51.202,"label":"Porto Alegre","importance":2},{"lat":25.0128,"lng":121.465,"label":"New Taipei","importance":2},{"lat":21.2019,"lng":72.8381,"label":"Surat","importance":2},{"lat":24.6953,"lng":108.083,"label":"Hechi","importance":2},{"lat":5.3219,"lng":-4.042,"label":"Abidjan","importance":2},{"lat":-15.7814,"lng":-47.918,"label":"Brasília","importance":2},{"lat":39.9292,"lng":32.8624,"label":"Ankara","importance":2},{"lat":25.6719,"lng":-100.3319,"label":"Monterrey","importance":2},{"lat":35.4307,"lng":139.602,"label":"Yokohama","importance":2},{"lat":32.052,"lng":118.778,"label":"Nanjing","importance":2},{"lat":45.5019,"lng":-73.5852,"label":"Montréal","importance":2},{"lat":26.582,"lng":106.7181,"label":"Guiyang","importance":2},{"lat":-8.0737,"lng":-34.9176,"label":"Recife","importance":2},{"lat":45.7519,"lng":126.648,"label":"Harbin","importance":2},{"lat":-3.7481,"lng":-38.5819,"label":"Fortaleza","importance":2},{"lat":43.807,"lng":87.5731,"label":"Ürümqi","importance":2},{"lat":33.5419,"lng":-112.0719,"label":"Phoenix","importance":2},{"lat":24.5204,"lng":117.67,"label":"Zhangzhou","importance":2},{"lat":-12.968,"lng":-38.4819,"label":"Salvador","importance":2},{"lat":35.097,"lng":129.0081,"label":"Busan","importance":2},{"lat":37.7692,"lng":-122.4172,"label":"San Francisco","importance":2},{"lat":-26.1681,"lng":28.0281,"label":"Johannesburg","importance":2},{"lat":52.5238,"lng":13.3996,"label":"Berlin","importance":2},{"lat":36.765,"lng":3.0486,"label":"Algiers","importance":2},{"lat":41.8979,"lng":12.4813,"label":"Rome","importance":2},{"lat":39.0214,"lng":125.7527,"label":"Pyongyang","importance":2},{"lat":6.2769,"lng":-75.577,"label":"Medellín","importance":2},{"lat":34.5186,"lng":69.1813,"label":"Kabul","importance":2},{"lat":37.9853,"lng":23.7314,"label":"Athens","importance":2},{"lat":35.1569,"lng":136.913,"label":"Nagoya","importance":2},{"lat":-33.9181,"lng":18.433,"label":"Cape Town","importance":2},{"lat":43.867,"lng":125.338,"label":"Changchun","importance":2},{"lat":33.6019,"lng":-7.6183,"label":"Casablanca","importance":2},{"lat":38.9248,"lng":121.6279,"label":"Dalian","importance":2},{"lat":26.4619,"lng":80.318,"label":"Kanpur","importance":2},{"lat":12.0019,"lng":8.5181,"label":"Kano","importance":2},{"lat":32.0819,"lng":34.7681,"label":"Tel Aviv","importance":2},{"lat":9.0353,"lng":38.6981,"label":"Addis Ababa","importance":2},{"lat":-25.4181,"lng":-49.3219,"label":"Curitiba","importance":2},{"lat":47.5719,"lng":-122.3419,"label":"Seattle","importance":2},{"lat":36.8019,"lng":118.048,"label":"Zibo","importance":2},{"lat":21.5188,"lng":39.2173,"label":"Jeddah","importance":2},{"lat":33.6804,"lng":-117.8299,"label":"Irvine","importance":2},{"lat":-1.2814,"lng":36.8147,"label":"Nairobi","importance":2},{"lat":30.2519,"lng":120.1681,"label":"Hangzhou","importance":2},{"lat":-26.1476,"lng":28.328,"label":"Benoni","importance":2},{"lat":10.5029,"lng":-66.919,"label":"Caracas","importance":2},{"lat":45.4719,"lng":9.2031,"label":"Milan","importance":2},{"lat":48.78,"lng":9.2,"label":"Stuttgart","importance":2},{"lat":25.0719,"lng":102.678,"label":"Kunming","importance":2},{"lat":-6.7981,"lng":39.2664,"label":"Dar es Salaam","importance":2},{"lat":26.9231,"lng":75.808,"label":"Jaipur","importance":2},{"lat":32.822,"lng":-117.1819,"label":"San Diego","importance":2},{"lat":37.877,"lng":112.5431,"label":"Taiyuan","importance":2},{"lat":50.1,"lng":8.675,"label":"Frankfurt","importance":2},{"lat":36.0919,"lng":120.3281,"label":"Qingdao","importance":2},{"lat":-7.2473,"lng":112.7489,"label":"Surabaya","importance":2},{"lat":38.7247,"lng":-9.1468,"label":"Lisbon","importance":2},{"lat":36.6769,"lng":116.9931,"label":"Jinan","importance":2},{"lat":33.597,"lng":130.4081,"label":"Fukuoka","importance":2},{"lat":-22.8981,"lng":-47.102,"label":"Campinas","importance":2},{"lat":22.6333,"lng":120.2666,"label":"Kaohsiung","importance":2},{"lat":14.6504,"lng":121.03,"label":"Quezon City","importance":2},{"lat":50.2604,"lng":19.02,"label":"Katowice","importance":2},{"lat":36.2319,"lng":37.1681,"label":"Aleppo","importance":2},{"lat":-29.8631,"lng":30.9781,"label":"Durban","importance":2},{"lat":50.4353,"lng":30.5147,"label":"Kyiv","importance":2},{"lat":26.857,"lng":80.9131,"label":"Lucknow","importance":2},{"lat":30.01,"lng":31.19,"label":"Giza","importance":2},{"lat":34.7569,"lng":113.6631,"label":"Zhengzhou","importance":2},{"lat":24.1521,"lng":120.6817,"label":"Taichung","importance":2},{"lat":7.382,"lng":3.928,"label":"Ibadan","importance":2},{"lat":31.4119,"lng":73.1081,"label":"Faisalabad","importance":2},{"lat":44.9819,"lng":-93.2537,"label":"Minneapolis","importance":2},{"lat":26.0819,"lng":119.2981,"label":"Fuzhou","importance":2},{"lat":28.2019,"lng":112.968,"label":"Changsha","importance":2},{"lat":14.7178,"lng":-17.4751,"label":"Dakar","importance":2},{"lat":38.4381,"lng":27.1498,"label":"İzmir","importance":2},{"lat":27.8504,"lng":112.9,"label":"Xiangtan","importance":2},{"lat":36.058,"lng":103.7901,"label":"Lanzhou","importance":2},{"lat":37.4781,"lng":126.6403,"label":"Incheon","importance":2},{"lat":43.0769,"lng":141.3381,"label":"Sapporo","importance":2},{"lat":24.4519,"lng":118.0781,"label":"Xiamen","importance":2},{"lat":-2.2181,"lng":-79.922,"label":"Guayaquil","importance":2},{"lat":5.4136,"lng":100.3294,"label":"George Town","importance":2},{"lat":18.44,"lng":-66.13,"label":"San Juan","importance":2},{"lat":36.272,"lng":59.5681,"label":"Mashhad","importance":2},{"lat":33.502,"lng":36.2981,"label":"Damascus","importance":2},{"lat":35.8687,"lng":128.605,"label":"Daegu","importance":2},{"lat":21.1719,"lng":79.088,"label":"Nagpur","importance":2},{"lat":40.7523,"lng":120.828,"label":"Jinxi","importance":2},{"lat":38.052,"lng":114.478,"label":"Shijiazhuang","importance":2},{"lat":36.8028,"lng":10.1797,"label":"Tunis","importance":2},{"lat":48.202,"lng":16.3647,"label":"Vienna","importance":2},{"lat":43.8519,"lng":126.5481,"label":"Jilin","importance":2},{"lat":15.6167,"lng":32.48,"label":"Omdurman","importance":2},{"lat":-6.9481,"lng":107.5681,"label":"Bandung","importance":2},{"lat":-6.2173,"lng":106.9723,"label":"Bekasi","importance":2},{"lat":49.5004,"lng":8.47,"label":"Mannheim","importance":2},{"lat":28.0219,"lng":120.6481,"label":"Wenzhou","importance":2},{"lat":28.6819,"lng":115.8781,"label":"Nanchang","importance":2},{"lat":27.9489,"lng":-82.4606,"label":"Tampa","importance":2},{"lat":49.2754,"lng":-123.1236,"label":"Vancouver","importance":2},{"lat":39.7411,"lng":-104.986,"label":"Denver","importance":2},{"lat":52.4769,"lng":-1.9219,"label":"Birmingham","importance":2},{"lat":39.3019,"lng":-76.6219,"label":"Baltimore","importance":2},{"lat":3.4019,"lng":-76.5019,"label":"Cali","importance":2},{"lat":38.2891,"lng":141.0198,"label":"Sendai","importance":2},{"lat":40.842,"lng":14.2431,"label":"Naples","importance":2},{"lat":53.5024,"lng":-2.2499,"label":"Manchester","importance":2},{"lat":38.637,"lng":-90.2419,"label":"St. Louis","importance":2},{"lat":19.0519,"lng":-98.202,"label":"Puebla","importance":2},{"lat":32.8925,"lng":13.18,"label":"Tripoli","importance":2},{"lat":41.3136,"lng":69.293,"label":"Tashkent","importance":2},{"lat":30.7824,"lng":106.1281,"label":"Nanchong","importance":2},{"lat":23.1339,"lng":-82.3661,"label":"Havana","importance":2},{"lat":22.8219,"lng":108.3181,"label":"Nanning","importance":2},{"lat":-1.4481,"lng":-48.482,"label":"Belém","importance":2},{"lat":25.6269,"lng":85.1281,"label":"Patna","importance":2},{"lat":18.472,"lng":-69.902,"label":"Santo Domingo","importance":2},{"lat":34.8819,"lng":117.5681,"label":"Zaozhuang","importance":2},{"lat":40.3972,"lng":49.8603,"label":"Baku","importance":2},{"lat":5.552,"lng":-0.2187,"label":"Accra","importance":2},{"lat":37.5324,"lng":121.3981,"label":"Yantai","importance":2},{"lat":3.5819,"lng":98.6481,"label":"Medan","importance":2},{"lat":-17.752,"lng":-63.2279,"label":"Santa Cruz","importance":2},{"lat":34.282,"lng":117.1781,"label":"Xuzhou","importance":2},{"lat":35.0819,"lng":118.328,"label":"Linyi","importance":2},{"lat":10.7319,"lng":-71.6619,"label":"Maracaibo","importance":2},{"lat":29.3717,"lng":47.9764,"label":"Kuwait City","importance":2},{"lat":26.4301,"lng":50.0977,"label":"Dammam","importance":2},{"lat":20.05,"lng":110.32,"label":"Haikou","importance":2},{"lat":34.3898,"lng":132.441,"label":"Hiroshima","importance":2},{"lat":26.1361,"lng":-80.1418,"label":"Fort Lauderdale","importance":2},{"lat":33.787,"lng":-118.158,"label":"Long Beach","importance":2},{"lat":40.6542,"lng":109.8201,"label":"Baotou","importance":2},{"lat":31.852,"lng":117.2781,"label":"Hefei","importance":2},{"lat":22.717,"lng":75.8631,"label":"Indore","importance":2},{"lat":-16.7181,"lng":-49.302,"label":"Goiânia","importance":2},{"lat":15.3567,"lng":44.2046,"label":"Sanaa","importance":2},{"lat":18.543,"lng":-72.338,"label":"Port-au-Prince","importance":2},{"lat":20.832,"lng":106.6781,"label":"Haiphong","importance":2},{"lat":33.6381,"lng":116.9769,"label":"Suzhou","importance":2},{"lat":33.0023,"lng":112.5281,"label":"Nanyang","importance":2},{"lat":44.4353,"lng":26.098,"label":"Bucharest","importance":2},{"lat":29.8819,"lng":121.5481,"label":"Ningbo","importance":2},{"lat":4.0624,"lng":9.708,"label":"Douala","importance":2},{"lat":41.4719,"lng":-81.6969,"label":"Cleveland","importance":2},{"lat":39.6263,"lng":118.1924,"label":"Tangshan","importance":2},{"lat":23.0,"lng":120.2,"label":"Tainan","importance":2},{"lat":45.522,"lng":-122.6819,"label":"Portland","importance":2},{"lat":40.082,"lng":113.2981,"label":"Datong","importance":2},{"lat":-25.2945,"lng":-57.6435,"label":"Asunción","importance":2},{"lat":34.75,"lng":72.35,"label":"Saidu","importance":2},{"lat":-27.4531,"lng":153.0331,"label":"Brisbane","importance":2},{"lat":33.6019,"lng":73.0381,"label":"Rawalpindi","importance":2},{"lat":33.8739,"lng":35.5078,"label":"Beirut","importance":2},{"lat":40.4319,"lng":-80.0019,"label":"Pittsburgh","importance":2},{"lat":36.2119,"lng":-115.222,"label":"Las Vegas","importance":2},{"lat":35.0319,"lng":135.7481,"label":"Kyoto","importance":2},{"lat":53.9019,"lng":27.5647,"label":"Minsk","importance":2},{"lat":10.9619,"lng":-74.8019,"label":"Barranquilla","importance":2},{"lat":34.1299,"lng":118.7734,"label":"Shuyang","importance":2},{"lat":10.2319,"lng":-67.982,"label":"Valencia","importance":2},{"lat":53.552,"lng":9.9981,"label":"Hamburg","importance":2},{"lat":22.312,"lng":73.1781,"label":"Vadodara","importance":2},{"lat":34.4524,"lng":115.6481,"label":"Shangqiu","importance":2},{"lat":-3.0981,"lng":-60.002,"label":"Manaus","importance":2},{"lat":31.5819,"lng":120.298,"label":"Wuxi","importance":2},{"lat":-2.9781,"lng":104.7481,"label":"Palembang","importance":2},{"lat":34.1223,"lng":-117.302,"label":"San Bernardino","importance":2},{"lat":50.8353,"lng":4.3314,"label":"Brussels","importance":2},{"lat":51.45,"lng":7.0166,"label":"Essen","importance":2},{"lat":23.2519,"lng":77.408,"label":"Bhopal","importance":2},{"lat":40.8219,"lng":111.6581,"label":"Hohhot","importance":3},{"lat":34.6819,"lng":112.4681,"label":"Luoyang","importance":3},{"lat":-23.9518,"lng":-46.3349,"label":"Santos","importance":3},{"lat":30.652,"lng":113.1581,"label":"Jianmen","importance":3},{"lat":52.2519,"lng":20.9981,"label":"Warsaw","importance":3},{"lat":34.0253,"lng":-6.8364,"label":"Rabat","importance":3},{"lat":-20.322,"lng":-40.3679,"label":"Vitória","importance":3},{"lat":-0.213,"lng":-78.502,"label":"Quito","importance":3},{"lat":-18.9147,"lng":47.5147,"label":"Antananarivo","importance":3},{"lat":11.0019,"lng":76.9481,"label":"Coimbatore","importance":3},{"lat":46.5819,"lng":124.9981,"label":"Daqing","importance":3},{"lat":31.7523,"lng":116.4781,"label":"Luan","importance":3},{"lat":30.82,"lng":108.4,"label":"Wanzhou","importance":3},{"lat":47.502,"lng":19.0814,"label":"Budapest","importance":3},{"lat":37.3019,"lng":-121.8519,"label":"San Jose","importance":3},{"lat":45.0723,"lng":7.668,"label":"Turin","importance":3},{"lat":31.3024,"lng":120.6181,"label":"Suzhou","importance":3},{"lat":30.9297,"lng":75.8703,"label":"Ludhiana","importance":3},{"lat":6.6919,"lng":-1.632,"label":"Kumasi","importance":3},{"lat":47.3469,"lng":123.988,"label":"Qiqihar","importance":3},{"lat":41.117,"lng":122.9381,"label":"Anshan","importance":3},{"lat":39.1638,"lng":-84.4589,"label":"Cincinnati","importance":3},{"lat":24.965,"lng":121.2168,"label":"Zhongli","importance":3},{"lat":36.5819,"lng":114.478,"label":"Handan","importance":3},{"lat":36.2019,"lng":117.1181,"label":"Taian","importance":3},{"lat":32.702,"lng":51.6981,"label":"Isfahan","importance":3},{"lat":3.8686,"lng":11.5147,"label":"Yaoundé","importance":3},{"lat":38.577,"lng":-121.472,"label":"Sacramento","importance":3},{"lat":23.372,"lng":116.6681,"label":"Shantou","importance":3},{"lat":27.1724,"lng":78.0131,"label":"Agra","importance":3},{"lat":21.2019,"lng":110.3781,"label":"Zhanjiang","importance":3},{"lat":-16.496,"lng":-68.1519,"label":"La Paz","importance":3},{"lat":19.2502,"lng":73.1602,"label":"Kalyan","importance":3},{"lat":9.0853,"lng":7.5314,"label":"Abuja","importance":3},{"lat":-17.8158,"lng":31.0428,"label":"Harare","importance":3},{"lat":30.3724,"lng":113.4381,"label":"Xiantao","importance":3},{"lat":36.7224,"lng":119.0982,"label":"Weifang","importance":3},{"lat":22.8419,"lng":89.5581,"label":"Khulna","importance":3},{"lat":32.502,"lng":-117.0819,"label":"Tijuana","importance":3},{"lat":19.5,"lng":-70.67,"label":"Santiago","importance":3},{"lat":32.1323,"lng":114.068,"label":"Xinyang","importance":3},{"lat":28.8819,"lng":105.3781,"label":"Luzhou","importance":3},{"lat":-31.9531,"lng":115.8381,"label":"Perth","importance":3},{"lat":19.3323,"lng":-99.6719,"label":"Toluca","importance":3},{"lat":53.832,"lng":-1.582,"label":"Leeds","importance":3},{"lat":17.732,"lng":83.303,"label":"Vishakhapatnam","importance":3},{"lat":34.68,"lng":135.17,"label":"Kōbe","importance":3},{"lat":30.2019,"lng":71.4531,"label":"Multan","importance":3},{"lat":10.017,"lng":76.222,"label":"Kochi","importance":3},{"lat":32.1624,"lng":74.1831,"label":"Gujranwala","importance":3},{"lat":-34.8561,"lng":-56.173,"label":"Montevideo","importance":3},{"lat":37.7689,"lng":-122.2211,"label":"Oakland","importance":3},{"lat":-22.9,"lng":-43.1,"label":"Niterói","importance":3},{"lat":25.92,"lng":114.95,"label":"Ganzhou","importance":3},{"lat":43.78,"lng":11.25,"label":"Florence","importance":3},{"lat":24.2819,"lng":109.2481,"label":"Liuzhou","importance":3},{"lat":12.652,"lng":-8.002,"label":"Bamako","importance":3},{"lat":9.5335,"lng":-13.6822,"label":"Conakry","importance":3},{"lat":40.2019,"lng":29.0681,"label":"Bursa","importance":3},{"lat":36.8552,"lng":-75.9803,"label":"Virginia Beach","importance":3},{"lat":21.1519,"lng":-101.702,"label":"León","importance":3},{"lat":20.0024,"lng":73.778,"label":"Nasik","importance":3},{"lat":29.4893,"lng":-98.5093,"label":"San Antonio","importance":3},{"lat":41.8673,"lng":123.8681,"label":"Fushun","importance":3},{"lat":29.0319,"lng":111.6781,"label":"Changde","importance":3},{"lat":39.109,"lng":-94.606,"label":"Kansas City","importance":3},{"lat":36.3375,"lng":127.4231,"label":"Daejeon","importance":3},{"lat":29.5823,"lng":105.0481,"label":"Neijiang","importance":3},{"lat":11.552,"lng":104.9147,"label":"Phnom Penh","importance":3},{"lat":24.902,"lng":118.578,"label":"Quanzhou","importance":3},{"lat":50.0019,"lng":36.2481,"label":"Kharkiv","importance":3},{"lat":25.3819,"lng":68.373,"label":"Hyderabad","importance":3},{"lat":6.1339,"lng":1.2208,"label":"Lomé","importance":3},{"lat":-31.398,"lng":-64.1842,"label":"Córdoba","importance":3},{"lat":32.6319,"lng":116.978,"label":"Huainan","importance":3},{"lat":25.2866,"lng":51.533,"label":"Doha","importance":3},{"lat":3.1686,"lng":101.698,"label":"Kuala Lumpur","importance":3},{"lat":-25.9533,"lng":32.5872,"label":"Maputo","importance":3},{"lat":10.522,"lng":7.4381,"label":"Kaduna","importance":3},{"lat":32.74,"lng":-97.34,"label":"Ft.  Worth","importance":3},{"lat":35.1729,"lng":126.9085,"label":"Gwangju","importance":3},{"lat":35.53,"lng":139.705,"label":"Kawasaki","importance":3},{"lat":39.7519,"lng":-86.172,"label":"Indianapolis","importance":3},{"lat":13.7119,"lng":-89.205,"label":"San Salvador","importance":3},{"lat":30.5353,"lng":105.5314,"label":"Suining","importance":3},{"lat":35.8023,"lng":50.9681,"label":"Karaj","importance":3},{"lat":45.772,"lng":4.8281,"label":"Lyon","importance":3},{"lat":0.3186,"lng":32.5814,"label":"Kampala","importance":3},{"lat":38.0882,"lng":46.2993,"label":"Tabriz","importance":3},{"lat":52.08,"lng":4.27,"label":"The Hague","importance":3},{"lat":7.112,"lng":125.6281,"label":"Davao","importance":3},{"lat":43.2919,"lng":5.3731,"label":"Marseille","importance":3},{"lat":29.0024,"lng":77.6981,"label":"Meerut","importance":3},{"lat":31.4719,"lng":104.768,"label":"Mianyang","importance":3},{"lat":-6.9647,"lng":110.4181,"label":"Semarang","importance":3},{"lat":28.4353,"lng":77.3147,"label":"Faridabad","importance":3},{"lat":55.0319,"lng":82.9581,"label":"Novosibirsk","importance":3},{"lat":43.0546,"lng":-87.9219,"label":"Milwaukee","importance":3},{"lat":21.432,"lng":39.8181,"label":"Makkah","importance":3},{"lat":25.2319,"lng":55.278,"label":"Dubai","importance":3},{"lat":-36.8481,"lng":174.763,"label":"Auckland","importance":3},{"lat":31.7304,"lng":118.48,"label":"Maanshan","importance":3},{"lat":-4.2572,"lng":15.2827,"label":"Brazzaville","importance":3},{"lat":28.6024,"lng":112.3281,"label":"Yiyang","importance":3},{"lat":-11.6781,"lng":27.4781,"label":"Lubumbashi","importance":3},{"lat":25.3319,"lng":82.9981,"label":"Varanasi","importance":3},{"lat":28.5119,"lng":-81.382,"label":"Orlando","importance":3},{"lat":31.6923,"lng":-106.492,"label":"Ciudad Juárez","importance":3},{"lat":28.6623,"lng":77.4064,"label":"Ghaziabad","importance":3},{"lat":35.2319,"lng":115.4481,"label":"Heze","importance":3},{"lat":-25.705,"lng":28.2275,"label":"Pretoria","importance":3},{"lat":41.152,"lng":-8.6219,"label":"Porto","importance":3},{"lat":-15.4147,"lng":28.2814,"label":"Lusaka","importance":3},{"lat":23.6853,"lng":86.9814,"label":"Asansol","importance":3},{"lat":31.7819,"lng":119.968,"label":"Changzhou","importance":3},{"lat":36.3469,"lng":43.1431,"label":"Mosul","importance":3},{"lat":56.852,"lng":60.598,"label":"Yekaterinburg","importance":3},{"lat":34.007,"lng":71.5331,"label":"Peshawar","importance":3},{"lat":21.9719,"lng":96.0831,"label":"Mandalay","importance":3},{"lat":22.7895,"lng":86.1956,"label":"Jamshedpur","importance":3},{"lat":-6.1481,"lng":23.5981,"label":"Mbuji-Mayi","importance":3},{"lat":9.922,"lng":78.1181,"label":"Madurai","importance":3},{"lat":36.9969,"lng":35.3181,"label":"Adana","importance":3},{"lat":53.3667,"lng":-1.5,"label":"Sheffield","importance":3},{"lat":23.177,"lng":79.9531,"label":"Jabalpur","importance":3},{"lat":9.937,"lng":-84.086,"label":"San José","importance":3},{"lat":8.97,"lng":-79.535,"label":"Panama City","importance":3},{"lat":56.335,"lng":43.9981,"label":"Nizhny Novgorod","importance":3},{"lat":41.823,"lng":-71.4169,"label":"Providence","importance":3},{"lat":42.272,"lng":118.948,"label":"Chifeng","importance":3},{"lat":51.43,"lng":6.75,"label":"Duisburg","importance":3},{"lat":48.1319,"lng":11.573,"label":"Munich","importance":3},{"lat":39.9819,"lng":-82.992,"label":"Columbus","importance":3},{"lat":33.5819,"lng":119.028,"label":"Huaiyin","importance":3},{"lat":59.3527,"lng":18.0954,"label":"Stockholm","importance":3},{"lat":-5.138,"lng":119.4301,"label":"Makassar","importance":3},{"lat":22.312,"lng":70.7981,"label":"Rajkot","importance":3},{"lat":26.745,"lng":-80.1236,"label":"West Palm Beach","importance":3},{"lat":23.8023,"lng":86.418,"label":"Dhanbad","importance":3},{"lat":44.577,"lng":129.5881,"label":"Mudangiang","importance":3},{"lat":29.6319,"lng":52.5681,"label":"Shiraz","importance":3},{"lat":46.21,"lng":6.14,"label":"Geneva","importance":3},{"lat":30.8723,"lng":120.0981,"label":"Huzhou","importance":3},{"lat":34.602,"lng":105.918,"label":"Tianshui","importance":3},{"lat":26.5964,"lng":104.8314,"label":"Liupanshui","importance":3},{"lat":51.2204,"lng":6.78,"label":"Düsseldorf","importance":3},{"lat":21.9204,"lng":110.87,"label":"Maoming","importance":3},{"lat":37.405,"lng":-5.98,"label":"Seville","importance":3},{"lat":31.6419,"lng":74.868,"label":"Amritsar","importance":3},{"lat":3.2167,"lng":-51.2167,"label":"Vila Velha","importance":3},{"lat":-20.3676,"lng":-40.318,"label":"Vila Velha","importance":3},{"lat":43.3269,"lng":76.9131,"label":"Almaty","importance":3},{"lat":18.01,"lng":79.58,"label":"Warangal","importance":3},{"lat":-32.9492,"lng":-60.6683,"label":"Rosario","importance":3},{"lat":25.4569,"lng":81.8381,"label":"Allahabad","importance":3},{"lat":6.3424,"lng":5.6181,"label":"Benin City","importance":3},{"lat":35.4024,"lng":116.5481,"label":"Jining","importance":3},{"lat":-9.6181,"lng":-35.7319,"label":"Maceió","importance":3},{"lat":42.6853,"lng":23.3147,"label":"Sofia","importance":3},{"lat":34.1495,"lng":73.1995,"label":"Abbottabad","importance":3},{"lat":32.1187,"lng":20.0648,"label":"Banghazi","importance":3},{"lat":-7.7188,"lng":109.0154,"label":"Cilacap","importance":3},{"lat":35.8188,"lng":-78.6447,"label":"Raleigh","importance":3},{"lat":50.0853,"lng":14.464,"label":"Prague","importance":3},{"lat":30.2689,"lng":-97.7447,"label":"Austin","importance":3},{"lat":55.8764,"lng":-4.2527,"label":"Glasgow","importance":3},{"lat":29.569,"lng":103.7314,"label":"Leshan","importance":3},{"lat":12.3723,"lng":-1.5267,"label":"Ouagadougou","importance":3},{"lat":45.4186,"lng":-75.702,"label":"Ottawa","importance":3},{"lat":-34.933,"lng":138.5981,"label":"Adelaide","importance":3},{"lat":28.4704,"lng":117.97,"label":"Shangrao","importance":3},{"lat":25.572,"lng":-103.4219,"label":"Torreón","importance":3},{"lat":34.1019,"lng":74.8131,"label":"Srinagar","importance":3},{"lat":16.5219,"lng":80.6281,"label":"Vijayawada","importance":3},{"lat":53.197,"lng":50.1493,"label":"Samara","importance":3},{"lat":54.9919,"lng":73.398,"label":"Omsk","importance":3},{"lat":33.53,"lng":-86.825,"label":"Birmingham","importance":3},{"lat":38.7689,"lng":125.4505,"label":"Nampo","importance":3},{"lat":22.6319,"lng":110.1481,"label":"Yulin","importance":3},{"lat":34.3475,"lng":108.7128,"label":"Xianyang","importance":3},{"lat":8.4508,"lng":124.6853,"label":"Cagayan de Oro","importance":3},{"lat":10.05,"lng":105.77,"label":"Can Tho","importance":3},{"lat":10.0519,"lng":-69.3019,"label":"Barquisimeto","importance":3},{"lat":55.7519,"lng":49.1244,"label":"Kazan","importance":3},{"lat":60.1775,"lng":24.9322,"label":"Helsinki","importance":3},{"lat":19.8976,"lng":75.3184,"label":"Aurangabad","importance":3},{"lat":51.0849,"lng":-114.0819,"label":"Calgary","importance":3},{"lat":19.41,"lng":-99.03,"label":"Nezahualcoyotl","importance":3},{"lat":47.3819,"lng":8.5481,"label":"Zürich","importance":3},{"lat":38.8724,"lng":115.4781,"label":"Baoding","importance":3},{"lat":29.4019,"lng":104.7781,"label":"Zigong","importance":3},{"lat":25.3714,"lng":55.4065,"label":"Sharjah","importance":3},{"lat":40.1831,"lng":44.5116,"label":"Yerevan","importance":3},{"lat":32.68,"lng":109.02,"label":"Ankang","importance":3},{"lat":2.0686,"lng":45.3647,"label":"Mogadishu","importance":3},{"lat":41.727,"lng":44.7888,"label":"Tbilisi","importance":3},{"lat":-12.748,"lng":15.7581,"label":"Huambo","importance":3},{"lat":7.5304,"lng":5.76,"label":"Ikare","importance":3},{"lat":44.8206,"lng":20.466,"label":"Belgrade","importance":3},{"lat":21.2186,"lng":81.4314,"label":"Bhilai","importance":3},{"lat":29.12,"lng":119.65,"label":"Jinhua","importance":3},{"lat":55.1569,"lng":61.4367,"label":"Chelyabinsk","importance":3},{"lat":-5.7781,"lng":-35.242,"label":"Natal","importance":3},{"lat":38.56,"lng":68.7739,"label":"Dushanbe","importance":3},{"lat":33.4239,"lng":-111.7361,"label":"Mesa","importance":3},{"lat":55.6805,"lng":12.5615,"label":"København","importance":3},{"lat":35.2191,"lng":128.5836,"label":"Changwon","importance":3},{"lat":35.1219,"lng":-90.0019,"label":"Memphis","importance":3},{"lat":27.8319,"lng":113.1481,"label":"Zhuzhou","importance":3},{"lat":37.2597,"lng":127.0089,"label":"Suwon","importance":3},{"lat":-26.6477,"lng":27.958,"label":"Vereeniging","importance":3},{"lat":32.0219,"lng":112.1281,"label":"Xiangyang","importance":3},{"lat":35.5487,"lng":129.315,"label":"Ulsan","importance":3},{"lat":35.99,"lng":119.3801,"label":"Zhucheng","importance":3},{"lat":31.952,"lng":35.9314,"label":"Amman","importance":3},{"lat":53.335,"lng":-6.2509,"label":"Dublin","importance":3},{"lat":53.552,"lng":-113.5019,"label":"Edmonton","importance":3},{"lat":17.6724,"lng":75.8981,"label":"Sholapur","importance":3},{"lat":47.2366,"lng":39.7107,"label":"Rostov","importance":3},{"lat":48.4819,"lng":34.9981,"label":"Dnipro","importance":3},{"lat":36.6219,"lng":101.7681,"label":"Xining","importance":3},{"lat":36.85,"lng":-76.28,"label":"Norfolk","importance":3},{"lat":40.8319,"lng":114.928,"label":"Zhangjiakou","importance":3},{"lat":50.6519,"lng":3.0781,"label":"Lille","importance":3},{"lat":37.0769,"lng":37.383,"label":"Gaziantep","importance":3},{"lat":23.372,"lng":85.3281,"label":"Ranchi","importance":3},{"lat":6.3146,"lng":-10.7997,"label":"Monrovia","importance":3},{"lat":-2.514,"lng":-44.2679,"label":"São Luís","importance":3},{"lat":52.3519,"lng":4.9147,"label":"Amsterdam","importance":3},{"lat":31.7784,"lng":35.2066,"label":"Jerusalem","importance":3},{"lat":14.6231,"lng":-90.5289,"label":"Guatemala City","importance":3},{"lat":22.2789,"lng":113.5658,"label":"Zhuhai","importance":3},{"lat":-27.578,"lng":-48.522,"label":"Florianópolis","importance":3},{"lat":-33.9681,"lng":25.5981,"label":"Port Elizabeth","importance":3},{"lat":4.8119,"lng":7.0081,"label":"Port Harcourt","importance":3},{"lat":46.832,"lng":130.3481,"label":"Jiamusi","importance":3},{"lat":41.1819,"lng":-73.2019,"label":"Bridgeport","importance":3},{"lat":54.7919,"lng":56.0381,"label":"Ufa","importance":3},{"lat":26.882,"lng":112.5881,"label":"Hengyang","importance":3},{"lat":42.8819,"lng":-78.8819,"label":"Buffalo","importance":3},{"lat":41.3323,"lng":123.7481,"label":"Benxi","importance":3},{"lat":32.8224,"lng":34.9781,"label":"Haifa","importance":3},{"lat":24.5019,"lng":39.5781,"label":"Medina","importance":3},{"lat":7.132,"lng":-73.1278,"label":"Bucaramanga","importance":3},{"lat":10.2488,"lng":-67.5978,"label":"Maracay","importance":3},{"lat":51.9219,"lng":4.478,"label":"Rotterdam","importance":3},{"lat":34.7319,"lng":36.7181,"label":"Homs","importance":3},{"lat":50.932,"lng":6.9481,"label":"Cologne","importance":3},{"lat":39.9323,"lng":119.6181,"label":"Qinhuangdao","importance":3},{"lat":34.0565,"lng":-5.0023,"label":"Fez","importance":3},{"lat":26.2323,"lng":111.6181,"label":"Yongzhou","importance":3},{"lat":-17.41,"lng":-66.17,"label":"Cochabamba","importance":3},{"lat":16.06,"lng":108.25,"label":"Da Nang","importance":3},{"lat":25.12,"lng":99.15,"label":"Baoshan","importance":3},{"lat":12.7797,"lng":45.0095,"label":"Aden","importance":3},{"lat":33.8704,"lng":130.82,"label":"Kitakyūshū","importance":3},{"lat":58.0019,"lng":56.248,"label":"Perm","importance":3},{"lat":31.2819,"lng":48.7181,"label":"Ahvaz","importance":3},{"lat":35.2069,"lng":-80.832,"label":"Charlotte","importance":3},{"lat":26.2937,"lng":73.0148,"label":"Jodhpur","importance":3},{"lat":22.1719,"lng":-101.0019,"label":"San Luis Potosí","importance":3},{"lat":46.492,"lng":30.7081,"label":"Odessa","importance":3},{"lat":38.4699,"lng":106.2711,"label":"Yinchuan","importance":3},{"lat":12.115,"lng":15.0472,"label":"N'Djamena","importance":3},{"lat":30.7724,"lng":120.748,"label":"Jiaxing","importance":3},{"lat":-26.318,"lng":-48.8419,"label":"Joinville","importance":3},{"lat":30.332,"lng":-81.6719,"label":"Jacksonville","importance":3},{"lat":48.0019,"lng":37.828,"label":"Donetsk","importance":3},{"lat":25.2819,"lng":110.2781,"label":"Guilin","importance":3},{"lat":36.8667,"lng":43.0,"label":"Duhok","importance":3},{"lat":48.712,"lng":44.498,"label":"Volgograd","importance":3},{"lat":26.162,"lng":91.768,"label":"Guwahati","importance":3},{"lat":27.8353,"lng":114.3981,"label":"Yichun","importance":3},{"lat":37.87,"lng":113.57,"label":"Yangquan","importance":3},{"lat":-6.9838,"lng":-60.2699,"label":"Natal","importance":3},{"lat":30.7219,"lng":76.7781,"label":"Chandigarh","importance":3},{"lat":26.2319,"lng":78.1781,"label":"Gwalior","importance":3},{"lat":34.7181,"lng":137.7327,"label":"Hamamatsu","importance":3},{"lat":34.652,"lng":50.9481,"label":"Qom","importance":3},{"lat":40.777,"lng":-111.932,"label":"Salt Lake City","importance":3},{"lat":45.3019,"lng":130.9681,"label":"Jixi","importance":3},{"lat":20.9686,"lng":-89.6186,"label":"Mérida","importance":3},{"lat":34.38,"lng":118.35,"label":"Xinyi","importance":3},{"lat":20.632,"lng":-100.3819,"label":"Querétaro","importance":3},{"lat":27.622,"lng":113.8481,"label":"Pingxiang","importance":3},{"lat":3.0223,"lng":101.5481,"label":"Kelang","importance":3},{"lat":41.1223,"lng":121.0981,"label":"Jinzhou","importance":3},{"lat":-7.0992,"lng":-34.878,"label":"João Pessoa","importance":3},{"lat":40.6804,"lng":14.7699,"label":"Salerno","importance":3},{"lat":8.5019,"lng":76.9481,"label":"Thiruvananthapuram","importance":3},{"lat":11.2524,"lng":75.768,"label":"Kozhikode","importance":3},{"lat":8.132,"lng":4.238,"label":"Ogbomosho","importance":3},{"lat":10.8119,"lng":78.688,"label":"Tiruchirappalli","importance":3},{"lat":6.1108,"lng":125.1747,"label":"General Santos","importance":3},{"lat":16.47,"lng":107.58,"label":"Hue","importance":3},{"lat":10.6317,"lng":122.9817,"label":"Bacolod","importance":3},{"lat":38.227,"lng":-85.7506,"label":"Louisville","importance":3},{"lat":32.0323,"lng":120.8231,"label":"Nantong","importance":3},{"lat":36.12,"lng":-95.93,"label":"Tulsa","importance":3},{"lat":14.104,"lng":-87.2195,"label":"Tegucigalpa","importance":3},{"lat":23.032,"lng":113.1181,"label":"Foshan","importance":3},{"lat":37.4406,"lng":127.1358,"label":"Songnam","importance":3},{"lat":17.9771,"lng":-76.7674,"label":"Kingston","importance":3},{"lat":19.7685,"lng":96.1167,"label":"Naypyidaw","importance":3},{"lat":43.717,"lng":7.2631,"label":"Nice","importance":3},{"lat":36.181,"lng":44.0067,"label":"Irbil","importance":3},{"lat":56.0159,"lng":92.8641,"label":"Krasnoyarsk","importance":3},{"lat":11.595,"lng":43.148,"label":"Djibouti","importance":3},{"lat":-8.0,"lng":-34.85,"label":"Olinda","importance":3},{"lat":51.2223,"lng":4.4131,"label":"Antwerpen","importance":3},{"lat":12.155,"lng":-86.2704,"label":"Managua","importance":3},{"lat":37.877,"lng":32.4731,"label":"Konya","importance":3},{"lat":-6.5681,"lng":106.7481,"label":"Bogor","importance":3},{"lat":13.5187,"lng":2.1147,"label":"Niamey","importance":3},{"lat":41.772,"lng":-72.6819,"label":"Hartford","importance":3},{"lat":33.9523,"lng":116.7481,"label":"Huaibei","importance":3},{"lat":27.802,"lng":114.928,"label":"Xinyu","importance":3},{"lat":37.552,"lng":-77.4519,"label":"Richmond","importance":3},{"lat":-5.0931,"lng":-42.782,"label":"Teresina","importance":3},{"lat":26.2072,"lng":127.673,"label":"Naha","importance":3},{"lat":37.6547,"lng":126.8353,"label":"Goyang","importance":3},{"lat":35.3224,"lng":113.868,"label":"Xinxiang","importance":3},{"lat":28.7719,"lng":104.5681,"label":"Yibin","importance":3},{"lat":35.105,"lng":-106.6413,"label":"Albuquerque","importance":3},{"lat":5.1004,"lng":7.35,"label":"Aba","importance":3},{"lat":11.8519,"lng":13.1581,"label":"Maiduguri","importance":3},{"lat":41.3275,"lng":19.8189,"label":"Tirana","importance":3},{"lat":27.7186,"lng":85.3147,"label":"Kathmandu","importance":3},{"lat":32.07,"lng":36.1,"label":"Az Zarqa","importance":3},{"lat":36.9204,"lng":34.88,"label":"Tarsus","importance":3},{"lat":32.9519,"lng":117.3281,"label":"Bengbu","importance":3},{"lat":-32.8814,"lng":-68.8186,"label":"Mendoza","importance":3},{"lat":15.3619,"lng":75.1231,"label":"Hubballi","importance":3},{"lat":-36.83,"lng":-73.05,"label":"Concepción","importance":3},{"lat":11.0819,"lng":7.7081,"label":"Zaria","importance":3},{"lat":36.0819,"lng":114.3481,"label":"Anyang","importance":3},{"lat":12.3119,"lng":76.6581,"label":"Mysuru","importance":3},{"lat":10.4017,"lng":-75.5163,"label":"Cartagena","importance":3},{"lat":32.6519,"lng":-115.482,"label":"Mexicali","importance":3},{"lat":47.9186,"lng":106.9147,"label":"Ulaanbaatar","importance":3},{"lat":43.6219,"lng":122.268,"label":"Tongliao","importance":3},{"lat":55.0023,"lng":-1.6019,"label":"Newcastle","importance":3},{"lat":-4.0381,"lng":39.688,"label":"Mombasa","importance":3},{"lat":-5.4496,"lng":105.3,"label":"Bandar Lampung","importance":3},{"lat":41.24,"lng":-96.01,"label":"Omaha","importance":3},{"lat":36.1719,"lng":-86.7819,"label":"Nashville","importance":3},{"lat":-29.7096,"lng":-51.14,"label":"Novo Hamburgo","importance":3},{"lat":-12.07,"lng":-77.135,"label":"Callao","importance":3},{"lat":43.25,"lng":-2.93,"label":"Bilbao","importance":3},{"lat":1.482,"lng":103.7281,"label":"Johor Bahru","importance":3},{"lat":30.7019,"lng":111.2781,"label":"Yichang","importance":3},{"lat":21.2369,"lng":81.6331,"label":"Raipur","importance":3},{"lat":11.6719,"lng":78.1781,"label":"Salem","importance":3},{"lat":21.8504,"lng":111.97,"label":"Yangjiang","importance":3},{"lat":34.8519,"lng":114.3481,"label":"Kaifeng","importance":3},{"lat":31.6319,"lng":-8.0019,"label":"Marrakesh","importance":3},{"lat":42.67,"lng":-73.8199,"label":"Albany","importance":3},{"lat":40.1456,"lng":124.3916,"label":"Dandong","importance":3},{"lat":30.5155,"lng":47.8116,"label":"Basra","importance":3},{"lat":21.8814,"lng":-102.2924,"label":"Aguascalientes","importance":3},{"lat":34.672,"lng":133.9171,"label":"Okayama","importance":3},{"lat":37.5008,"lng":126.7811,"label":"Bucheon","importance":3},{"lat":30.9544,"lng":118.7533,"label":"Xuanzhou","importance":3},{"lat":35.4304,"lng":119.45,"label":"Rizhao","importance":3},{"lat":-5.4281,"lng":105.2681,"label":"Bandar Lampung","importance":3},{"lat":38.127,"lng":13.3481,"label":"Palermo","importance":3},{"lat":51.5,"lng":-3.225,"label":"Cardiff","importance":3},{"lat":-1.9516,"lng":30.0586,"label":"Kigali","importance":3},{"lat":22.3,"lng":-97.87,"label":"Tampico","importance":3},{"lat":35.252,"lng":113.2181,"label":"Jiaozuo","importance":3},{"lat":31.3369,"lng":75.5671,"label":"Jullundur","importance":3},{"lat":-0.9581,"lng":100.3581,"label":"Padang","importance":3},{"lat":32.2219,"lng":119.4281,"label":"Zhenjiang","importance":3},{"lat":-33.0458,"lng":-71.623,"label":"Valparaíso","importance":3},{"lat":38.4261,"lng":77.25,"label":"Shache","importance":3},{"lat":26.2523,"lng":105.9281,"label":"Anshun","importance":3},{"lat":27.702,"lng":106.9181,"label":"Zunyi","importance":3},{"lat":33.7324,"lng":113.2981,"label":"Pingdingshan","importance":3},{"lat":43.6219,"lng":1.448,"label":"Toulouse","importance":3},{"lat":41.3304,"lng":-72.9,"label":"New Haven","importance":3},{"lat":-22.74,"lng":-43.47,"label":"Nova Iguaçu","importance":3},{"lat":51.7319,"lng":39.2681,"label":"Voronezh","importance":3},{"lat":20.2724,"lng":85.8254,"label":"Bhubaneswar","importance":3},{"lat":51.5819,"lng":46.0281,"label":"Saratov","importance":3},{"lat":-22.77,"lng":-43.31,"label":"Duque de Caxias","importance":3},{"lat":37.6823,"lng":112.7281,"label":"Yuci","importance":3},{"lat":33.3875,"lng":120.1233,"label":"Yancheng","importance":3},{"lat":42.875,"lng":74.5833,"label":"Bishkek","importance":3},{"lat":59.9186,"lng":10.748,"label":"Oslo","importance":3},{"lat":18.9211,"lng":-99.24,"label":"Cuernavaca","importance":3},{"lat":36.0823,"lng":111.5181,"label":"Linfen","importance":3},{"lat":4.3666,"lng":18.5583,"label":"Bangui","importance":3},{"lat":5.52,"lng":5.76,"label":"Warri","importance":3},{"lat":47.5804,"lng":7.59,"label":"Basel","importance":3},{"lat":-26.8141,"lng":-65.2186,"label":"Tucumán","importance":3},{"lat":34.382,"lng":47.0581,"label":"Kermanshah","importance":3},{"lat":40.6981,"lng":22.8831,"label":"Thessaloniki","importance":3},{"lat":25.1819,"lng":75.8331,"label":"Kota","importance":3},{"lat":8.472,"lng":-13.2362,"label":"Freetown","importance":3},{"lat":41.555,"lng":-8.4213,"label":"Braga","importance":3},{"lat":25.453,"lng":78.5575,"label":"Jhansi","importance":3},{"lat":29.382,"lng":113.0981,"label":"Yueyang","importance":3},{"lat":52.9703,"lng":-1.17,"label":"Nottingham","importance":3},{"lat":30.44,"lng":-9.62,"label":"Agadir","importance":3},{"lat":32.2069,"lng":-110.8919,"label":"Tucson","importance":3},{"lat":5.4171,"lng":100.4,"label":"Butterworth","importance":3},{"lat":28.3473,"lng":79.4181,"label":"Bareilly","importance":3},{"lat":9.93,"lng":8.89,"label":"Jos","importance":3},{"lat":25.0924,"lng":104.8881,"label":"Xingyi","importance":3},{"lat":-16.418,"lng":-71.532,"label":"Arequipa","importance":3},{"lat":10.3219,"lng":123.8981,"label":"Cebu","importance":3},{"lat":53.4179,"lng":-2.9199,"label":"Liverpool","importance":3},{"lat":31.3524,"lng":118.368,"label":"Wuhu","importance":3},{"lat":39.5223,"lng":116.6781,"label":"Langfang","importance":3},{"lat":24.3769,"lng":88.6031,"label":"Rajshahi","importance":3},{"lat":27.3223,"lng":103.7181,"label":"Zhaotang","importance":3},{"lat":24.8319,"lng":-107.3819,"label":"Culiacán","importance":3},{"lat":39.487,"lng":-0.402,"label":"Valencia","importance":3},{"lat":41.2419,"lng":119.3992,"label":"Lingyuan","importance":3},{"lat":-15.5677,"lng":-56.0869,"label":"Cuiabá","importance":3},{"lat":13.78,"lng":109.18,"label":"Qui Nhon","importance":3},{"lat":27.8942,"lng":78.0598,"label":"Aligarh","importance":3},{"lat":-7.978,"lng":112.6081,"label":"Malang","importance":3},{"lat":49.835,"lng":24.03,"label":"Lviv","importance":3},{"lat":44.852,"lng":-0.597,"label":"Bordeaux","importance":3},{"lat":27.7705,"lng":-82.6794,"label":"St. Petersburg","importance":3},{"lat":34.38,"lng":107.15,"label":"Baoji","importance":3},{"lat":0.5669,"lng":101.4231,"label":"Pekanbaru","importance":3},{"lat":35.7119,"lng":-0.6219,"label":"Oran","importance":3},{"lat":40.6723,"lng":122.2781,"label":"Yingkow","importance":3},{"lat":19.352,"lng":73.1281,"label":"Bhiwandi","importance":3},{"lat":41.2819,"lng":123.1781,"label":"Liaoyang","importance":3},{"lat":28.6469,"lng":-106.0869,"label":"Chihuahua","importance":3},{"lat":32.7137,"lng":74.8448,"label":"Jammu","importance":3},{"lat":2.2064,"lng":102.2465,"label":"Malacca","importance":3},{"lat":47.8592,"lng":35.1749,"label":"Zaporizhzhya","importance":3},{"lat":35.472,"lng":-97.5206,"label":"Oklahoma City","importance":3},{"lat":28.8437,"lng":78.7548,"label":"Moradabad","importance":3},{"lat":21.3088,"lng":-157.8599,"label":"Honolulu","importance":3},{"lat":29.9969,"lng":-90.0419,"label":"New Orleans","importance":3},{"lat":36.8919,"lng":30.698,"label":"Antalya","importance":3},{"lat":14.7999,"lng":42.951,"label":"Al Hudaydah","importance":3},{"lat":33.7019,"lng":73.1647,"label":"Islamabad","importance":3},{"lat":-20.4481,"lng":-54.6186,"label":"Campo Grande","importance":3},{"lat":30.0023,"lng":120.5681,"label":"Shaoxing","importance":3},{"lat":47.7019,"lng":128.898,"label":"Yichun","importance":3},{"lat":12.9,"lng":74.85,"label":"Mangaluru","importance":3},{"lat":51.25,"lng":7.17,"label":"Wuppertal","importance":3},{"lat":36.6439,"lng":127.5012,"label":"Cheongju","importance":3},{"lat":39.7523,"lng":-84.2019,"label":"Dayton","importance":3},{"lat":39.912,"lng":127.5435,"label":"Hamhung","importance":3},{"lat":6.9219,"lng":122.0781,"label":"Zamboanga","importance":3},{"lat":8.492,"lng":4.548,"label":"Ilorin","importance":3},{"lat":30.0553,"lng":119.95,"label":"Fuyang","importance":3},{"lat":49.2504,"lng":6.97,"label":"Saarbrücken","importance":3},{"lat":32.57,"lng":110.78,"label":"Shiyan","importance":3},{"lat":42.0124,"lng":121.6581,"label":"Fuxin","importance":3},{"lat":30.2219,"lng":67.023,"label":"Quetta","importance":3},{"lat":-8.12,"lng":-79.02,"label":"Trujillo","importance":3},{"lat":-5.8881,"lng":22.3981,"label":"Kananga","importance":3},{"lat":40.98,"lng":39.72,"label":"Trabzon","importance":3},{"lat":6.402,"lng":2.518,"label":"Cotonou","importance":3},{"lat":35.5004,"lng":112.83,"label":"Jincheng","importance":3},{"lat":51.7769,"lng":19.4494,"label":"Łódź","importance":3},{"lat":50.0619,"lng":19.9581,"label":"Kraków","importance":3},{"lat":43.1724,"lng":-77.6219,"label":"Rochester","importance":3},{"lat":25.4219,"lng":-101.0069,"label":"Saltillo","importance":3},{"lat":17.9667,"lng":102.6,"label":"Vientiane","importance":3},{"lat":-23.2,"lng":-45.8799,"label":"São José dos Campos","importance":3},{"lat":31.7819,"lng":-106.5119,"label":"El Paso","importance":3},{"lat":13.6064,"lng":44.0375,"label":"Taizz","importance":3},{"lat":-29.61,"lng":30.39,"label":"Pietermaritzburg","importance":3},{"lat":35.7473,"lng":-5.8327,"label":"Tangier","importance":3},{"lat":24.0734,"lng":120.5134,"label":"Changhua","importance":3},{"lat":24.8168,"lng":120.9767,"label":"Hsinchu","importance":3},{"lat":40.39,"lng":71.78,"label":"Fargona","importance":3},{"lat":41.0,"lng":71.67,"label":"Namangan","importance":3},{"lat":16.7,"lng":74.22,"label":"Kolhapur","importance":3},{"lat":50.63,"lng":5.58,"label":"Liège","importance":3},{"lat":41.0533,"lng":-73.5392,"label":"Stamford","importance":3},{"lat":8.37,"lng":-62.62,"label":"Ciudad Guayana","importance":3},{"lat":47.4,"lng":130.37,"label":"Hegang","importance":3},{"lat":56.95,"lng":24.1,"label":"Riga","importance":3},{"lat":18.0864,"lng":-15.9753,"label":"Nouakchott","importance":3},{"lat":13.6192,"lng":123.1814,"label":"Naga","importance":3},{"lat":54.36,"lng":18.64,"label":"Gdańsk","importance":3},{"lat":37.3481,"lng":126.8595,"label":"Ansan","importance":3},{"lat":49.45,"lng":11.08,"label":"Nürnberg","importance":3},{"lat":7.8504,"lng":3.93,"label":"Oyo","importance":3},{"lat":44.944,"lng":-93.085,"label":"St.  Paul","importance":3},{"lat":23.6133,"lng":58.5933,"label":"Muscat","importance":3},{"lat":20.95,"lng":77.77,"label":"Amravati","importance":3},{"lat":-8.65,"lng":115.22,"label":"Denpasar","importance":3},{"lat":13.06,"lng":5.24,"label":"Sokoto","importance":3},{"lat":21.4804,"lng":109.1,"label":"Beihai","importance":3},{"lat":37.95,"lng":58.3833,"label":"Ashgabat","importance":3},{"lat":53.08,"lng":8.8,"label":"Bremen","importance":3},{"lat":32.6848,"lng":-97.0202,"label":"Arlington","importance":3},{"lat":42.6337,"lng":-71.3167,"label":"Lowell","importance":3},{"lat":35.5613,"lng":45.4309,"label":"As Sulaymaniyah","importance":3},{"lat":45.8,"lng":16.0,"label":"Zagreb","importance":3},{"lat":52.367,"lng":9.7167,"label":"Hanover","importance":3},{"lat":7.92,"lng":-72.52,"label":"Cúcuta","importance":3},{"lat":43.25,"lng":-79.83,"label":"Hamilton","importance":3},{"lat":-3.3396,"lng":37.34,"label":"Moshi","importance":3},{"lat":24.8,"lng":113.58,"label":"Shaoguan","importance":3},{"lat":47.2113,"lng":-122.515,"label":"Tacoma","importance":3},{"lat":32.8009,"lng":130.7006,"label":"Kumamoto","importance":3},{"lat":34.6004,"lng":119.17,"label":"Lianyungang","importance":3},{"lat":16.85,"lng":-99.916,"label":"Acapulco","importance":3},{"lat":31.61,"lng":65.6949,"label":"Kandahar","importance":3},{"lat":30.3204,"lng":78.05,"label":"Dehra Dun","importance":3},{"lat":35.8314,"lng":127.1404,"label":"Jeonju","importance":3},{"lat":39.67,"lng":66.945,"label":"Samarkand","importance":3},{"lat":23.7004,"lng":113.0301,"label":"Qingyuan","importance":3},{"lat":36.1839,"lng":113.1053,"label":"Changzhi","importance":3},{"lat":41.0704,"lng":-81.52,"label":"Akron","importance":3},{"lat":53.4804,"lng":49.53,"label":"Tolyatti","importance":3},{"lat":-8.11,"lng":-35.02,"label":"Jaboatao","importance":3},{"lat":34.9858,"lng":138.3854,"label":"Shizuoka","importance":3},{"lat":-20.17,"lng":28.58,"label":"Bulawayo","importance":3},{"lat":10.92,"lng":-74.77,"label":"Soledad","importance":3},{"lat":33.9004,"lng":-5.56,"label":"Meknes","importance":3},{"lat":43.85,"lng":18.383,"label":"Sarajevo","importance":3},{"lat":41.15,"lng":80.25,"label":"Aksu","importance":3},{"lat":-34.9096,"lng":-57.96,"label":"La Plata","importance":3},{"lat":20.5604,"lng":74.525,"label":"Malegaon","importance":3},{"lat":6.45,"lng":7.5,"label":"Enugu","importance":3},{"lat":47.005,"lng":28.8577,"label":"Chișinău","importance":3},{"lat":30.22,"lng":115.1,"label":"Huangshi","importance":3},{"lat":-10.9,"lng":-37.12,"label":"Aracaju","importance":3},{"lat":37.9581,"lng":-121.2897,"label":"Stockton","importance":3},{"lat":50.7205,"lng":7.08,"label":"Bonn","importance":3},{"lat":15.5,"lng":-88.03,"label":"San Pedro Sula","importance":3},{"lat":14.44,"lng":79.9899,"label":"Nellore","importance":3},{"lat":37.5,"lng":15.08,"label":"Catania","importance":3},{"lat":26.7504,"lng":83.38,"label":"Gorakhpur","importance":3},{"lat":4.6,"lng":101.065,"label":"Ipoh","importance":3},{"lat":41.7846,"lng":129.79,"label":"Chongjin","importance":3},{"lat":36.55,"lng":139.87,"label":"Utsunomiya","importance":3},{"lat":35.7004,"lng":114.98,"label":"Puyang","importance":3},{"lat":32.0003,"lng":44.3354,"label":"Najaf","importance":3},{"lat":-25.57,"lng":-49.18,"label":"São José dos Pinhais","importance":3},{"lat":43.05,"lng":-76.15,"label":"Syracuse","importance":3},{"lat":-23.6528,"lng":-46.5278,"label":"Santo André","importance":3},{"lat":50.35,"lng":18.91,"label":"Bytom","importance":3},{"lat":-4.77,"lng":11.88,"label":"Pointe-Noire","importance":3},{"lat":21.2622,"lng":40.3823,"label":"At Taif","importance":3},{"lat":30.5903,"lng":32.26,"label":"Ismaïlia","importance":3},{"lat":35.97,"lng":-83.92,"label":"Knoxville","importance":3},{"lat":13.9304,"lng":75.56,"label":"Shivamogga","importance":4},{"lat":10.97,"lng":106.8301,"label":"Biên Hòa","importance":4},{"lat":25.6005,"lng":103.8166,"label":"Zhanyi","importance":4},{"lat":47.9283,"lng":33.345,"label":"Kryvyy Rih","importance":4},{"lat":42.9354,"lng":89.165,"label":"Turpan","importance":4},{"lat":32.55,"lng":35.85,"label":"Irbid","importance":4},{"lat":11.0804,"lng":77.33,"label":"Tiruppur","importance":4},{"lat":40.79,"lng":72.34,"label":"Andijan","importance":4},{"lat":45.02,"lng":39.0,"label":"Krasnodar","importance":4},{"lat":41.65,"lng":-0.89,"label":"Zaragoza","importance":4},{"lat":44.41,"lng":8.93,"label":"Genoa","importance":4},{"lat":-13.9833,"lng":33.7833,"label":"Lilongwe","importance":4},{"lat":37.9204,"lng":40.23,"label":"Diyarbakır","importance":4},{"lat":19.7334,"lng":-101.1895,"label":"Morelia","importance":4},{"lat":54.33,"lng":48.41,"label":"Ulyanovsk","importance":4},{"lat":52.1003,"lng":5.12,"label":"Utrecht","importance":4},{"lat":44.3,"lng":86.0299,"label":"Shihezi","importance":4},{"lat":-5.03,"lng":18.85,"label":"Kikwit","importance":4},{"lat":25.3487,"lng":49.5856,"label":"Hofuf","importance":4},{"lat":-7.78,"lng":110.375,"label":"Yogyakarta","importance":4},{"lat":51.1104,"lng":17.03,"label":"Wrocław","importance":4},{"lat":49.883,"lng":-97.166,"label":"Winnipeg","importance":4},{"lat":56.85,"lng":53.23,"label":"Izhevsk","importance":4},{"lat":29.6609,"lng":-95.1477,"label":"Pasadena","importance":4},{"lat":39.5401,"lng":115.79,"label":"Zhuozhou","importance":4},{"lat":37.5569,"lng":-122.3131,"label":"San Mateo","importance":4},{"lat":22.2304,"lng":84.83,"label":"Raurkela","importance":4},{"lat":46.84,"lng":-71.2456,"label":"Québec","importance":4},{"lat":52.4058,"lng":16.8999,"label":"Poznań","importance":4},{"lat":31.26,"lng":32.29,"label":"Bur Said","importance":4},{"lat":19.17,"lng":77.3,"label":"Nanded","importance":4},{"lat":32.989,"lng":70.5986,"label":"Bannu","importance":4},{"lat":15.3333,"lng":38.9333,"label":"Asmara","importance":4},{"lat":51.55,"lng":0.72,"label":"Southend-on-Sea","importance":4},{"lat":51.05,"lng":13.75,"label":"Dresden","importance":4},{"lat":50.0804,"lng":8.25,"label":"Wiesbaden","importance":4},{"lat":36.8,"lng":34.62,"label":"Icel","importance":4},{"lat":36.7477,"lng":-119.773,"label":"Fresno","importance":4},{"lat":40.2248,"lng":116.1944,"label":"Changping","importance":4},{"lat":41.73,"lng":86.15,"label":"Korla","importance":4},{"lat":-0.907,"lng":119.833,"label":"Palu","importance":4},{"lat":32.4904,"lng":119.9,"label":"Taizhou","importance":4},{"lat":37.05,"lng":114.5,"label":"Xiangtai","importance":4},{"lat":33.2205,"lng":-117.335,"label":"Oceanside","importance":4},{"lat":41.28,"lng":36.3437,"label":"Samsun","importance":4},{"lat":25.7,"lng":32.65,"label":"Luxor","importance":4},{"lat":15.865,"lng":74.505,"label":"Belagavi","importance":4},{"lat":-0.03,"lng":109.32,"label":"Pontianak","importance":4},{"lat":57.62,"lng":39.87,"label":"Yaroslavl","importance":4},{"lat":36.36,"lng":6.5999,"label":"Constantine","importance":4},{"lat":-3.33,"lng":114.5801,"label":"Bandjarmasin","importance":4},{"lat":24.4667,"lng":54.3666,"label":"Abu Dhabi","importance":4},{"lat":35.4722,"lng":44.3923,"label":"Kirkuk","importance":4},{"lat":16.8604,"lng":74.575,"label":"Sangli","importance":4},{"lat":10.1304,"lng":-64.72,"label":"Barcelona","importance":4},{"lat":-29.92,"lng":-51.18,"label":"Canoas","importance":4},{"lat":31.0504,"lng":31.38,"label":"El Mansura","importance":4},{"lat":26.5504,"lng":31.7,"label":"Sohag","importance":4},{"lat":53.355,"lng":83.745,"label":"Barnaul","importance":4},{"lat":29.5,"lng":60.83,"label":"Zahedan","importance":4},{"lat":34.4415,"lng":70.4361,"label":"Jalalabad","importance":4},{"lat":-6.7629,"lng":-79.8366,"label":"Chiclayo","importance":4},{"lat":29.0989,"lng":-110.9541,"label":"Hermosillo","importance":4},{"lat":-20.1666,"lng":57.5,"label":"Port Louis","importance":4},{"lat":19.97,"lng":79.3,"label":"Chandrapur","importance":4},{"lat":23.4895,"lng":46.7564,"label":"Al Hillah","importance":4},{"lat":32.4721,"lng":44.4217,"label":"Al Hillah","importance":4},{"lat":37.3,"lng":49.63,"label":"Rasht","importance":4},{"lat":36.65,"lng":138.17,"label":"Nagano","importance":4},{"lat":18.7,"lng":105.68,"label":"Vinh","importance":4},{"lat":7.1604,"lng":3.35,"label":"Abeokuta","importance":4},{"lat":38.735,"lng":35.49,"label":"Kayseri","importance":4},{"lat":-0.5,"lng":117.15,"label":"Samarinda","importance":4},{"lat":41.5804,"lng":-87.33,"label":"Gary","importance":4},{"lat":26.45,"lng":74.64,"label":"Ajmer","importance":4},{"lat":27.3361,"lng":-82.5308,"label":"Sarasota","importance":4},{"lat":51.53,"lng":7.45,"label":"Dortmund","importance":4},{"lat":39.6959,"lng":-104.8085,"label":"Aurora","importance":4},{"lat":43.13,"lng":131.91,"label":"Vladivostok","importance":4},{"lat":52.32,"lng":104.245,"label":"Irkutsk","importance":4},{"lat":39.084,"lng":-84.5086,"label":"Covington","importance":4},{"lat":-15.79,"lng":34.9899,"label":"Blantyre","importance":4},{"lat":30.5,"lng":117.05,"label":"Anqing","importance":4},{"lat":20.47,"lng":85.8899,"label":"Cuttack","importance":4},{"lat":42.827,"lng":93.515,"label":"Hami","importance":4},{"lat":35.6577,"lng":139.3261,"label":"Hachiōji","importance":4},{"lat":48.455,"lng":135.12,"label":"Khabarovsk","importance":4},{"lat":19.1773,"lng":-96.16,"label":"Veracruz","importance":4},{"lat":0.52,"lng":25.22,"label":"Kisangani","importance":4},{"lat":41.53,"lng":-88.1067,"label":"Joliet","importance":4},{"lat":0.3854,"lng":9.458,"label":"Libreville","importance":4},{"lat":30.3,"lng":57.08,"label":"Kerman","importance":4},{"lat":37.53,"lng":45.0,"label":"Urmia","importance":4},{"lat":28.0304,"lng":73.3299,"label":"Bikaner","importance":4},{"lat":14.83,"lng":-91.52,"label":"Quetzaltenango","importance":4},{"lat":1.53,"lng":110.33,"label":"Kuching","importance":4},{"lat":39.3004,"lng":112.42,"label":"Shuozhou","importance":4},{"lat":37.92,"lng":139.04,"label":"Niigata","importance":4},{"lat":4.8104,"lng":-75.68,"label":"Pereira","importance":4},{"lat":22.203,"lng":113.545,"label":"Macau","importance":4},{"lat":7.69,"lng":-5.03,"label":"Bouaké","importance":4},{"lat":3.6204,"lng":98.5001,"label":"Binjai","importance":4},{"lat":26.2361,"lng":50.5831,"label":"Manama","importance":4},{"lat":-18.9,"lng":-48.28,"label":"Uberlândia","importance":4},{"lat":-23.49,"lng":-47.47,"label":"Sorocaba","importance":4},{"lat":30.9504,"lng":117.78,"label":"Tongling","importance":4},{"lat":37.5,"lng":122.1,"label":"Weihai","importance":4},{"lat":-38.0,"lng":-57.58,"label":"Mar del Plata","importance":4},{"lat":20.025,"lng":-75.8213,"label":"Santiago de Cuba","importance":4},{"lat":43.17,"lng":124.33,"label":"Siping","importance":4},{"lat":31.586,"lng":130.5611,"label":"Kagoshima","importance":4},{"lat":-7.565,"lng":110.825,"label":"Surakarta","importance":4},{"lat":42.98,"lng":47.5,"label":"Makhachkala","importance":4},{"lat":21.7784,"lng":72.13,"label":"Bhavnagar","importance":4},{"lat":5.008,"lng":7.85,"label":"Uyo","importance":4},{"lat":51.45,"lng":-2.5833,"label":"Bristol","importance":4},{"lat":29.39,"lng":71.675,"label":"Bahawalpur","importance":4},{"lat":34.2704,"lng":-6.58,"label":"Kenitra","importance":4},{"lat":-21.17,"lng":-47.83,"label":"Ribeirão Preto","importance":4},{"lat":36.56,"lng":136.64,"label":"Kanazawa","importance":4},{"lat":51.78,"lng":55.11,"label":"Orenburg","importance":4},{"lat":36.7204,"lng":-4.42,"label":"Málaga","importance":4},{"lat":28.3838,"lng":36.555,"label":"Tabuk","importance":4},{"lat":10.17,"lng":-64.68,"label":"Puerto la Cruz","importance":4},{"lat":29.73,"lng":115.98,"label":"Jiujiang","importance":4},{"lat":29.17,"lng":75.725,"label":"Hisar","importance":4},{"lat":-25.9696,"lng":32.46,"label":"Matola","importance":4},{"lat":22.0904,"lng":82.16,"label":"Bilaspur","importance":4},{"lat":32.0854,"lng":72.675,"label":"Sargodha","importance":4},{"lat":51.3354,"lng":12.41,"label":"Leipzig","importance":4},{"lat":43.9,"lng":81.35,"label":"Yining","importance":4},{"lat":54.6834,"lng":25.3166,"label":"Vilnius","importance":4},{"lat":8.7304,"lng":77.69,"label":"Tirunelveli","importance":4},{"lat":21.17,"lng":-86.83,"label":"Cancún","importance":4},{"lat":-32.8453,"lng":151.815,"label":"Newcastle","importance":4},{"lat":32.4,"lng":119.43,"label":"Yangzhou","importance":4},{"lat":53.75,"lng":87.115,"label":"Novokuznetsk","importance":4},{"lat":35.54,"lng":35.78,"label":"Latakia","importance":4},{"lat":25.88,"lng":-97.5,"label":"Matamoros","importance":4},{"lat":57.75,"lng":12.0,"label":"Göteborg","importance":4},{"lat":35.0064,"lng":135.8674,"label":"Ōtsu","importance":4},{"lat":42.9637,"lng":-85.6699,"label":"Grand Rapids","importance":4},{"lat":56.495,"lng":84.975,"label":"Tomsk","importance":4},{"lat":35.6,"lng":103.2,"label":"Linxia","importance":4},{"lat":33.8455,"lng":132.7658,"label":"Matsuyama","importance":4},{"lat":49.4304,"lng":1.08,"label":"Rouen","importance":4},{"lat":22.5804,"lng":113.08,"label":"Jiangmen","importance":4},{"lat":17.0827,"lng":-96.67,"label":"Oaxaca","importance":4},{"lat":-19.82,"lng":34.87,"label":"Beira","importance":4},{"lat":16.33,"lng":80.45,"label":"Guntur","importance":4},{"lat":34.422,"lng":35.868,"label":"Ṭarābulus","importance":4},{"lat":40.2736,"lng":-76.8847,"label":"Harrisburg","importance":4},{"lat":34.796,"lng":48.515,"label":"Hamadan","importance":4},{"lat":38.3204,"lng":116.87,"label":"Cangzhou","importance":4},{"lat":5.98,"lng":116.11,"label":"Kota Kinabalu","importance":4},{"lat":-28.0815,"lng":153.4482,"label":"Gold Coast","importance":4},{"lat":45.6303,"lng":-122.64,"label":"Vancouver","importance":4},{"lat":27.1304,"lng":115.0,"label":"Jian","importance":4},{"lat":-23.3,"lng":-51.18,"label":"Londrina","importance":4},{"lat":54.62,"lng":39.72,"label":"Ryazan","importance":4},{"lat":30.32,"lng":112.23,"label":"Jingzhou","importance":4},{"lat":6.33,"lng":-75.57,"label":"Bello","importance":4},{"lat":57.14,"lng":65.53,"label":"Tyumen","importance":4},{"lat":52.62,"lng":39.64,"label":"Lipetsk","importance":4},{"lat":26.7204,"lng":88.455,"label":"Siliguri","importance":4},{"lat":39.795,"lng":30.53,"label":"Eskişehir","importance":4},{"lat":5.55,"lng":95.32,"label":"Banda Aceh","importance":4},{"lat":23.1904,"lng":75.79,"label":"Ujjain","importance":4},{"lat":-24.7834,"lng":-65.4166,"label":"Salta","importance":4},{"lat":53.18,"lng":45.0,"label":"Penza","importance":4},{"lat":36.4203,"lng":2.83,"label":"Blida","importance":4},{"lat":46.9677,"lng":31.9843,"label":"Mykolayiv","importance":4},{"lat":32.6149,"lng":44.0245,"label":"Karbala","importance":4},{"lat":30.005,"lng":32.5499,"label":"Suez","importance":4},{"lat":50.3304,"lng":18.67,"label":"Gliwice","importance":4},{"lat":-0.3031,"lng":100.3615,"label":"Bukittinggi","importance":4},{"lat":39.4763,"lng":75.9699,"label":"Kashgar","importance":4},{"lat":42.9,"lng":125.13,"label":"Liaoyuan","importance":4},{"lat":31.53,"lng":34.445,"label":"Gaza City","importance":4},{"lat":6.12,"lng":102.23,"label":"Kota Baharu","importance":4},{"lat":-23.2,"lng":-46.88,"label":"Jundiaí","importance":4},{"lat":55.9483,"lng":-3.2191,"label":"Edinburgh","importance":4},{"lat":19.32,"lng":-98.23,"label":"Tlaxcala","importance":4},{"lat":34.0804,"lng":49.7,"label":"Arak","importance":4},{"lat":14.47,"lng":75.92,"label":"Davangere","importance":4},{"lat":-33.03,"lng":-71.54,"label":"Viña del Mar","importance":4},{"lat":22.6817,"lng":120.4817,"label":"Pingtung","importance":4},{"lat":36.92,"lng":7.76,"label":"Annaba","importance":4},{"lat":20.71,"lng":77.01,"label":"Akola","importance":4},{"lat":50.8303,"lng":-0.17,"label":"Brighton","importance":4},{"lat":46.3487,"lng":48.055,"label":"Astrakhan","importance":4},{"lat":53.8,"lng":-1.75,"label":"Bradford","importance":4},{"lat":39.1136,"lng":-94.6301,"label":"Kansas City","importance":4},{"lat":41.1142,"lng":16.8728,"label":"Bari","importance":4},{"lat":24.9889,"lng":121.3111,"label":"Taoyuan","importance":4},{"lat":33.5819,"lng":-112.1958,"label":"Glendale","importance":4},{"lat":-25.34,"lng":-57.52,"label":"San Lorenzo","importance":4},{"lat":25.1333,"lng":121.7333,"label":"Keelung","importance":4},{"lat":29.0171,"lng":-110.1333,"label":"Mazatlán","importance":4},{"lat":6.2104,"lng":7.07,"label":"Awka","importance":4},{"lat":-7.6296,"lng":112.9,"label":"Pasuruan","importance":4},{"lat":31.0504,"lng":30.47,"label":"Damanhûr","importance":4},{"lat":46.6704,"lng":131.35,"label":"Shuangyashan","importance":4},{"lat":34.7171,"lng":136.5167,"label":"Tsu","importance":4},{"lat":23.4755,"lng":120.4351,"label":"Chiayi","importance":4},{"lat":21.6,"lng":105.83,"label":"Thái Nguyên","importance":4},{"lat":28.09,"lng":30.75,"label":"El Minya","importance":4},{"lat":-8.5795,"lng":116.135,"label":"Mataram","importance":4},{"lat":0.033,"lng":-51.05,"label":"Macapá","importance":4},{"lat":26.08,"lng":-98.3,"label":"Reynosa","importance":4},{"lat":39.0618,"lng":66.8315,"label":"Shahrisabz","importance":4},{"lat":40.6,"lng":-75.5,"label":"Allentown","importance":4},{"lat":37.8739,"lng":-122.2712,"label":"Berkeley","importance":4},{"lat":33.5833,"lng":36.4,"label":"Douma","importance":4},{"lat":45.1804,"lng":124.82,"label":"Songyuan","importance":4},{"lat":42.0,"lng":21.4335,"label":"Skopje","importance":4},{"lat":-2.52,"lng":32.93,"label":"Mwanza","importance":4},{"lat":38.863,"lng":-104.792,"label":"Colorado Springs","importance":4},{"lat":37.928,"lng":102.641,"label":"Wuwei","importance":4},{"lat":19.6158,"lng":37.2164,"label":"Port Sudan","importance":4},{"lat":-31.6239,"lng":-60.69,"label":"Santa Fe","importance":4},{"lat":54.2,"lng":37.6299,"label":"Tula","importance":4},{"lat":29.0804,"lng":31.09,"label":"Beni Suef","importance":4},{"lat":42.8823,"lng":129.5128,"label":"Yanji","importance":4},{"lat":44.5004,"lng":11.34,"label":"Bologna","importance":4},{"lat":47.9604,"lng":-122.2,"label":"Everett","importance":4},{"lat":29.97,"lng":77.55,"label":"Saharanpur","importance":4},{"lat":17.35,"lng":76.82,"label":"Kalaburagi","importance":4},{"lat":22.8504,"lng":88.52,"label":"Bhatpara","importance":4},{"lat":7.4804,"lng":4.56,"label":"Ife","importance":4},{"lat":-12.25,"lng":-38.97,"label":"Feira de Santana","importance":4},{"lat":3.0667,"lng":101.55,"label":"Shah Alam","importance":4},{"lat":47.0962,"lng":37.5562,"label":"Mariupol","importance":4},{"lat":16.75,"lng":-93.15,"label":"Tuxtla Gutiérrez","importance":4},{"lat":34.33,"lng":62.17,"label":"Herat","importance":4},{"lat":52.43,"lng":31.0,"label":"Homyel","importance":4},{"lat":23.0504,"lng":112.45,"label":"Zhaoqing","importance":4},{"lat":-22.7499,"lng":-47.33,"label":"Americana","importance":4},{"lat":20.9,"lng":74.77,"label":"Dhule","importance":4},{"lat":49.8304,"lng":18.25,"label":"Ostrava","importance":4},{"lat":31.9201,"lng":54.37,"label":"Yazd","importance":4},{"lat":9.56,"lng":44.0653,"label":"Hargeisa","importance":4},{"lat":32.52,"lng":74.56,"label":"Sialkote","importance":4},{"lat":55.34,"lng":86.09,"label":"Kemerovo","importance":4},{"lat":8.55,"lng":39.27,"label":"Nazret","importance":4},{"lat":28.6804,"lng":121.45,"label":"Jiaojing","importance":4},{"lat":41.7277,"lng":82.9364,"label":"Kuqa","importance":4},{"lat":41.5504,"lng":120.42,"label":"Chaoyang","importance":4},{"lat":-21.77,"lng":-43.375,"label":"Juiz de Fora","importance":4},{"lat":41.67,"lng":-83.58,"label":"Toledo","importance":4},{"lat":24.6,"lng":73.73,"label":"Udaipur","importance":4},{"lat":40.776,"lng":29.9306,"label":"İzmit","importance":4},{"lat":37.95,"lng":23.7,"label":"Piraeus","importance":4},{"lat":42.32,"lng":69.595,"label":"Shymkent","importance":4},{"lat":42.6667,"lng":21.166,"label":"Pristina","importance":4},{"lat":8.1712,"lng":124.2154,"label":"Iligan","importance":4},{"lat":36.27,"lng":50.0,"label":"Qazvin","importance":4},{"lat":-29.12,"lng":26.2299,"label":"Bloemfontein","importance":4},{"lat":4.9604,"lng":8.33,"label":"Calabar","importance":4},{"lat":38.3704,"lng":38.3,"label":"Malatya","importance":4},{"lat":26.55,"lng":101.73,"label":"Panzhihua","importance":4},{"lat":27.2041,"lng":56.2721,"label":"Bandar-e-Abbas","importance":4},{"lat":55.7,"lng":52.3199,"label":"Naberezhnyye Chelny","importance":4},{"lat":35.1503,"lng":36.73,"label":"Hamah","importance":4},{"lat":-38.0996,"lng":145.2834,"label":"Cranbourne","importance":4},{"lat":-3.75,"lng":-73.25,"label":"Iquitos","importance":4},{"lat":36.7,"lng":67.1,"label":"Mazar-i-Sharif","importance":4},{"lat":52.63,"lng":-1.1332,"label":"Leicester","importance":4},{"lat":58.5901,"lng":49.67,"label":"Kirov","importance":4},{"lat":29.2704,"lng":117.18,"label":"Jingdezhen","importance":4},{"lat":24.0311,"lng":-104.67,"label":"Durango","importance":4},{"lat":-1.59,"lng":103.61,"label":"Jambi","importance":4},{"lat":-22.5196,"lng":-44.095,"label":"Volta Redonda","importance":4},{"lat":37.72,"lng":115.7,"label":"Hengshui","importance":4},{"lat":34.75,"lng":10.72,"label":"Sfax","importance":4},{"lat":54.92,"lng":-1.38,"label":"Sunderland","importance":4},{"lat":19.53,"lng":-96.92,"label":"Xalapa","importance":4},{"lat":48.5698,"lng":39.3344,"label":"Luhansk","importance":4},{"lat":1.48,"lng":124.85,"label":"Manado","importance":4},{"lat":49.885,"lng":73.115,"label":"Qaraghandy","importance":4},{"lat":31.0429,"lng":46.2676,"label":"An Nasiriyah","importance":4},{"lat":43.88,"lng":-78.85,"label":"Oshawa","importance":4},{"lat":45.8,"lng":130.85,"label":"Qitaihe","importance":4},{"lat":54.6,"lng":-5.96,"label":"Belfast","importance":4},{"lat":37.17,"lng":38.795,"label":"Şanlıurfa","importance":4},{"lat":40.9604,"lng":117.93,"label":"Chengde","importance":4},{"lat":34.0204,"lng":113.82,"label":"Xuchang","importance":4},{"lat":36.1704,"lng":1.32,"label":"Chlef","importance":4},{"lat":33.2432,"lng":131.5979,"label":"Ōita","importance":4},{"lat":16.43,"lng":120.5699,"label":"Baguio","importance":4},{"lat":-31.55,"lng":-68.52,"label":"San Juan","importance":4},{"lat":56.13,"lng":47.25,"label":"Cheboksary","importance":4},{"lat":7.6304,"lng":5.22,"label":"Ado Ekiti","importance":4},{"lat":-1.25,"lng":116.83,"label":"Balikpapan","importance":4},{"lat":15.15,"lng":76.915,"label":"Ballari","importance":4},{"lat":5.96,"lng":10.15,"label":"Bamenda","importance":4},{"lat":51.03,"lng":3.7,"label":"Gent","importance":4},{"lat":34.0674,"lng":134.5525,"label":"Tokushima","importance":4},{"lat":35.37,"lng":-119.02,"label":"Bakersfield","importance":4},{"lat":23.48,"lng":111.32,"label":"Wuzhou","importance":4},{"lat":50.8003,"lng":-1.08,"label":"Portsmouth","importance":4},{"lat":10.43,"lng":-71.45,"label":"Cabimas","importance":4},{"lat":-25.5235,"lng":-54.53,"label":"Foz do Iguaçu","importance":4},{"lat":34.2231,"lng":135.1677,"label":"Wakayama","importance":4},{"lat":48.58,"lng":7.75,"label":"Strasbourg","importance":4},{"lat":16.5004,"lng":97.67,"label":"Mawlamyine","importance":4},{"lat":7.77,"lng":-72.25,"label":"San Cristóbal","importance":4},{"lat":47.2104,"lng":-1.59,"label":"Nantes","importance":4},{"lat":40.29,"lng":69.6199,"label":"Khujand","importance":4},{"lat":32.43,"lng":105.87,"label":"Guangyuan","importance":4},{"lat":32.7004,"lng":51.47,"label":"Khomeini Shahr","importance":4},{"lat":9.3,"lng":13.39,"label":"Garoua","importance":4},{"lat":-2.51,"lng":28.84,"label":"Bukavu","importance":4},{"lat":8.82,"lng":78.13,"label":"Tuticorin","importance":4},{"lat":32.765,"lng":129.885,"label":"Nagasaki","importance":4},{"lat":36.0209,"lng":129.3715,"label":"Pohang","importance":4},{"lat":54.7,"lng":20.4973,"label":"Kaliningrad","importance":4},{"lat":27.5061,"lng":-99.5072,"label":"Laredo","importance":4},{"lat":-10.97,"lng":26.78,"label":"Likasi","importance":4},{"lat":17.9833,"lng":-76.95,"label":"Spanish Town","importance":4},{"lat":-33.3,"lng":-66.35,"label":"San Luis","importance":4},{"lat":12.9904,"lng":7.6,"label":"Katsina","importance":4},{"lat":-27.97,"lng":26.73,"label":"Welkom","importance":4},{"lat":11.2472,"lng":-74.2017,"label":"Santa Marta","importance":4},{"lat":18.0,"lng":-92.9,"label":"Villahermosa","importance":4},{"lat":53.26,"lng":34.43,"label":"Bryansk","importance":4},{"lat":50.73,"lng":-1.9001,"label":"Bournemouth","importance":4},{"lat":-3.8,"lng":102.27,"label":"Bengkulu","importance":4},{"lat":49.42,"lng":8.7,"label":"Heidelberg","importance":4},{"lat":15.83,"lng":78.03,"label":"Kurnool","importance":4},{"lat":23.68,"lng":116.63,"label":"Chaozhou","importance":4},{"lat":13.7817,"lng":121.0217,"label":"Batangas","importance":4},{"lat":48.15,"lng":17.117,"label":"Bratislava","importance":4},{"lat":24.8,"lng":85.0,"label":"Gaya","importance":4},{"lat":25.28,"lng":3.75,"label":"Arak","importance":4},{"lat":30.4579,"lng":-91.1402,"label":"Baton Rouge","importance":4},{"lat":42.12,"lng":-72.58,"label":"Springfield","importance":4},{"lat":4.4389,"lng":-75.2322,"label":"Ibagué","importance":4},{"lat":57.01,"lng":41.01,"label":"Ivanovo","importance":4},{"lat":39.9204,"lng":41.29,"label":"Erzurum","importance":4},{"lat":7.2504,"lng":5.2,"label":"Akure","importance":4},{"lat":27.19,"lng":31.1799,"label":"Asyut","importance":4},{"lat":-10.7167,"lng":25.4724,"label":"Kolwezi","importance":4},{"lat":27.7136,"lng":68.8486,"label":"Sukkur","importance":4},{"lat":33.57,"lng":114.03,"label":"Luohe","importance":4},{"lat":-7.23,"lng":-35.88,"label":"Campina Grande","importance":4},{"lat":43.45,"lng":-80.5,"label":"Kitchener","importance":4},{"lat":54.5804,"lng":-1.23,"label":"Middlesbrough","importance":4},{"lat":24.3005,"lng":116.12,"label":"Meizhou","importance":4},{"lat":38.25,"lng":48.3,"label":"Ardabil","importance":4},{"lat":53.4227,"lng":58.98,"label":"Magnitogorsk","importance":4},{"lat":35.4231,"lng":136.7628,"label":"Gifu","importance":4},{"lat":-12.08,"lng":-75.2,"label":"Huancayo","importance":4},{"lat":32.7924,"lng":-79.9921,"label":"Charleston","importance":4},{"lat":12.25,"lng":109.17,"label":"Nha Trang","importance":4},{"lat":9.75,"lng":-63.17,"label":"Maturín","importance":4},{"lat":40.5944,"lng":115.0243,"label":"Xuanhua","importance":4},{"lat":51.74,"lng":36.19,"label":"Kursk","importance":4},{"lat":34.69,"lng":-1.91,"label":"Oujda","importance":4},{"lat":49.1203,"lng":6.18,"label":"Metz","importance":4},{"lat":37.0997,"lng":79.9269,"label":"Hotan","importance":4},{"lat":24.2305,"lng":55.74,"label":"Al Ayn","importance":4},{"lat":33.5101,"lng":126.5219,"label":"Jeju","importance":4},{"lat":7.7704,"lng":4.56,"label":"Oshogbo","importance":4},{"lat":-19.4796,"lng":-42.52,"label":"Ipatinga","importance":4},{"lat":53.4204,"lng":14.53,"label":"Szczecin","importance":4},{"lat":25.8099,"lng":-80.1318,"label":"Miami Beach","importance":4},{"lat":37.98,"lng":-1.13,"label":"Murcia","importance":4},{"lat":30.7904,"lng":31.0,"label":"Tanta","importance":4},{"lat":-12.81,"lng":28.22,"label":"Kitwe","importance":4},{"lat":-6.16,"lng":39.2,"label":"Zanzibar","importance":4},{"lat":-23.0195,"lng":-45.56,"label":"Taubaté","importance":4},{"lat":11.865,"lng":-15.5984,"label":"Bissau","importance":4},{"lat":14.5504,"lng":121.0,"label":"Pasay City","importance":4},{"lat":1.0904,"lng":34.17,"label":"Mbale","importance":4},{"lat":37.72,"lng":-97.33,"label":"Wichita","importance":4},{"lat":15.46,"lng":36.39,"label":"Kassala","importance":4},{"lat":39.4236,"lng":125.939,"label":"Sunchon","importance":4},{"lat":56.86,"lng":35.89,"label":"Tver","importance":4},{"lat":31.0304,"lng":112.1,"label":"Jingmen","importance":4},{"lat":27.6104,"lng":75.14,"label":"Sikar","importance":4},{"lat":61.2599,"lng":73.425,"label":"Surgut","importance":4},{"lat":13.33,"lng":77.1,"label":"Tumakuru","importance":4},{"lat":25.5701,"lng":-103.5,"label":"Gómez Palacio","importance":4},{"lat":26.3664,"lng":43.9628,"label":"Buraydah","importance":4},{"lat":49.4249,"lng":27.0015,"label":"Khmelnytskyy","importance":4},{"lat":38.9521,"lng":-92.3339,"label":"Columbia","importance":4},{"lat":34.04,"lng":-80.9,"label":"Columbia","importance":4},{"lat":51.43,"lng":5.5,"label":"Eindhoven","importance":4},{"lat":18.8,"lng":98.98,"label":"Chiang Mai","importance":4},{"lat":-5.21,"lng":-80.63,"label":"Piura","importance":4},{"lat":48.2996,"lng":38.0547,"label":"Horlivka","importance":4},{"lat":-12.9999,"lng":28.65,"label":"Ndola","importance":4},{"lat":24.38,"lng":102.57,"label":"Yuxi","importance":4},{"lat":-0.09,"lng":34.75,"label":"Kisumu","importance":4},{"lat":29.9839,"lng":-90.1528,"label":"Metairie","importance":4},{"lat":8.9004,"lng":76.57,"label":"Kollam","importance":4},{"lat":59.4339,"lng":24.728,"label":"Tallinn","importance":4},{"lat":-41.3,"lng":174.7833,"label":"Wellington","importance":4},{"lat":13.1833,"lng":30.2167,"label":"Al-Ubayyid","importance":4},{"lat":12.06,"lng":24.89,"label":"Nyala","importance":4},{"lat":5.843,"lng":118.108,"label":"Sandakan","importance":4},{"lat":19.1104,"lng":74.75,"label":"Ahmednagar","importance":4},{"lat":40.5404,"lng":72.79,"label":"Osh","importance":4},{"lat":53.0004,"lng":-2.18,"label":"Stoke","importance":4},{"lat":33.7774,"lng":-116.5331,"label":"Palm Springs","importance":4},{"lat":25.3504,"lng":74.635,"label":"Bhilwara","importance":4},{"lat":42.0395,"lng":-88.2899,"label":"Elgin","importance":4},{"lat":23.4704,"lng":91.17,"label":"Comilla","importance":4},{"lat":13.6069,"lng":100.6115,"label":"Samut Prakan","importance":4},{"lat":36.07,"lng":-79.8,"label":"Greensboro","importance":4},{"lat":45.1804,"lng":5.72,"label":"Grenoble","importance":4},{"lat":-15.136,"lng":39.293,"label":"Nampula","importance":4},{"lat":18.6704,"lng":78.1,"label":"Nizamabad","importance":4},{"lat":37.165,"lng":-3.585,"label":"Granada‎","importance":4},{"lat":49.2004,"lng":16.61,"label":"Brno","importance":4},{"lat":52.4204,"lng":-1.5,"label":"Coventry","importance":4},{"lat":10.02,"lng":-84.23,"label":"Alajuela","importance":4},{"lat":10.705,"lng":122.545,"label":"Iloilo","importance":4},{"lat":-21.75,"lng":-41.32,"label":"Campos","importance":4},{"lat":-27.46,"lng":-58.99,"label":"Resistencia","importance":4},{"lat":45.62,"lng":122.82,"label":"Baicheng","importance":4},{"lat":38.8704,"lng":65.8,"label":"Qarshi","importance":4},{"lat":32.38,"lng":15.1,"label":"Misrata","importance":4},{"lat":27.5236,"lng":41.7001,"label":"Hail","importance":4},{"lat":36.7604,"lng":5.07,"label":"Béjaïa","importance":4},{"lat":50.9,"lng":-1.4,"label":"Southampton","importance":4},{"lat":20.53,"lng":-100.8,"label":"Celaya","importance":4},{"lat":1.2136,"lng":-77.2811,"label":"Pasto","importance":4},{"lat":-29.18,"lng":-51.17,"label":"Caxias do Sul","importance":4},{"lat":57.92,"lng":59.975,"label":"Nizhny Tagil","importance":4},{"lat":41.58,"lng":-93.62,"label":"Des Moines","importance":4},{"lat":27.88,"lng":102.3,"label":"Xichang","importance":4},{"lat":37.4504,"lng":116.3,"label":"Dezhou","importance":4},{"lat":44.6,"lng":33.465,"label":"Sevastopol","importance":4},{"lat":42.22,"lng":-8.73,"label":"Vigo","importance":4},{"lat":28.1,"lng":-15.43,"label":"Las Palmas","importance":4},{"lat":19.2704,"lng":76.76,"label":"Parbhani","importance":4},{"lat":49.0,"lng":8.4,"label":"Karlsruhe","importance":4},{"lat":41.2324,"lng":-111.968,"label":"Ogden","importance":4},{"lat":33.6304,"lng":114.63,"label":"Zhoukou","importance":4},{"lat":48.0297,"lng":37.9746,"label":"Makiyivka","importance":4},{"lat":25.4303,"lng":119.02,"label":"Putian","importance":4},{"lat":37.61,"lng":36.945,"label":"Kahramanmaraş","importance":4},{"lat":5.06,"lng":-75.52,"label":"Manizales","importance":4},{"lat":39.5743,"lng":2.6542,"label":"Palma","importance":4},{"lat":-37.0,"lng":174.885,"label":"Manukau","importance":4},{"lat":25.5705,"lng":91.88,"label":"Shillong","importance":4},{"lat":33.4804,"lng":48.35,"label":"Khorramabad","importance":4},{"lat":4.1533,"lng":-73.635,"label":"Villavicencio","importance":4},{"lat":-20.7996,"lng":-49.39,"label":"São José do Rio Preto","importance":4},{"lat":54.9504,"lng":23.88,"label":"Kaunas","importance":4},{"lat":18.4004,"lng":76.57,"label":"Latur","importance":4},{"lat":2.7105,"lng":101.94,"label":"Seremban","importance":4},{"lat":37.7704,"lng":29.08,"label":"Denizli","importance":4},{"lat":38.4954,"lng":43.4,"label":"Van","importance":4},{"lat":43.33,"lng":-8.42,"label":"La Coruña","importance":4},{"lat":30.3307,"lng":48.2797,"label":"Abadan","importance":4},{"lat":28.9704,"lng":118.87,"label":"Quzhou","importance":4},{"lat":9.4204,"lng":77.58,"label":"Rajapalaiyam","importance":4},{"lat":51.47,"lng":-0.98,"label":"Reading","importance":4},{"lat":17.5065,"lng":44.1316,"label":"Najran","importance":4},{"lat":53.8985,"lng":30.3246,"label":"Mahilyow","importance":4},{"lat":26.5196,"lng":50.0115,"label":"Al-Qatif","importance":4},{"lat":35.8997,"lng":14.5147,"label":"Valletta","importance":4},{"lat":23.2211,"lng":-106.42,"label":"Mazatlán","importance":4},{"lat":25.1804,"lng":117.03,"label":"Longyan","importance":4},{"lat":37.03,"lng":-76.35,"label":"Hampton","importance":4},{"lat":40.217,"lng":-74.7434,"label":"Trenton","importance":4},{"lat":53.1204,"lng":18.01,"label":"Bydgoszcz","importance":4},{"lat":3.83,"lng":103.32,"label":"Kuantan","importance":4},{"lat":0.55,"lng":123.07,"label":"Gorontalo","importance":4},{"lat":-0.28,"lng":36.07,"label":"Nakuru","importance":4},{"lat":43.0504,"lng":44.67,"label":"Vladikavkaz","importance":4},{"lat":27.5618,"lng":68.2068,"label":"Larkana","importance":4},{"lat":26.203,"lng":-98.2297,"label":"McAllen","importance":4},{"lat":-43.535,"lng":172.63,"label":"Christchurch","importance":4},{"lat":45.05,"lng":41.98,"label":"Stavropol","importance":4},{"lat":18.2591,"lng":109.504,"label":"Sanya","importance":4},{"lat":25.23,"lng":86.98,"label":"Bhagalpur","importance":4},{"lat":-29.3167,"lng":27.4833,"label":"Maseru","importance":4},{"lat":31.72,"lng":73.99,"label":"Sheikhu Pura","importance":4},{"lat":-13.525,"lng":-71.9722,"label":"Cusco","importance":4},{"lat":9.4004,"lng":-0.84,"label":"Tamale","importance":4},{"lat":38.7843,"lng":-90.5062,"label":"St. Charles","importance":4},{"lat":51.825,"lng":107.625,"label":"Ulan-Ude","importance":4},{"lat":11.18,"lng":-4.29,"label":"Bobo Dioulasso","importance":4},{"lat":51.2504,"lng":22.5727,"label":"Lublin","importance":4},{"lat":44.65,"lng":-63.6,"label":"Halifax","importance":4},{"lat":48.35,"lng":10.9,"label":"Augsburg","importance":4},{"lat":5.6497,"lng":100.4793,"label":"Sungai Petani","importance":4},{"lat":31.9889,"lng":44.924,"label":"Ad Diwaniyah","importance":4},{"lat":42.9,"lng":71.365,"label":"Taraz","importance":4},{"lat":44.9492,"lng":34.0987,"label":"Simferopol","importance":4},{"lat":43.1342,"lng":5.9188,"label":"Toulon","importance":4},{"lat":36.67,"lng":48.5,"label":"Zanjan","importance":4},{"lat":43.3204,"lng":-1.98,"label":"San Sebastián","importance":4},{"lat":37.0553,"lng":140.89,"label":"Iwaki","importance":4},{"lat":-27.3472,"lng":-55.8739,"label":"Encarnación","importance":4},{"lat":-27.3578,"lng":-55.8851,"label":"Posadas","importance":4},{"lat":40.2489,"lng":-111.6378,"label":"Provo","importance":4},{"lat":9.1774,"lng":105.15,"label":"Cà Mau","importance":4},{"lat":43.755,"lng":142.38,"label":"Asahikawa","importance":4},{"lat":25.5318,"lng":69.0118,"label":"Mirpur Khas","importance":4},{"lat":64.575,"lng":40.545,"label":"Archangel","importance":4},{"lat":39.6259,"lng":121.996,"label":"Wafangdian","importance":4},{"lat":-3.7167,"lng":128.2,"label":"Ambon","importance":4},{"lat":18.85,"lng":-97.13,"label":"Orizaba","importance":4},{"lat":35.0476,"lng":104.6394,"label":"Longxi","importance":4},{"lat":-27.7833,"lng":-64.2667,"label":"Santiago del Estero","importance":4},{"lat":36.3704,"lng":140.48,"label":"Mito","importance":4},{"lat":32.32,"lng":-9.24,"label":"Safi","importance":4},{"lat":0.52,"lng":35.27,"label":"Eldoret","importance":4},{"lat":28.4202,"lng":70.2952,"label":"Rahim Yar Khan","importance":4},{"lat":2.931,"lng":-75.3302,"label":"Neiva","importance":4},{"lat":49.2254,"lng":28.4816,"label":"Vinnytsya","importance":4},{"lat":34.8529,"lng":-82.3942,"label":"Greenville","importance":4},{"lat":23.9837,"lng":121.6,"label":"Hualien","importance":4},{"lat":5.3304,"lng":103.12,"label":"Kuala Terengganu","importance":4},{"lat":42.0483,"lng":-87.7,"label":"Evanston","importance":4},{"lat":39.83,"lng":97.73,"label":"Yumen","importance":4},{"lat":41.7654,"lng":-88.3,"label":"Aurora","importance":4},{"lat":40.5404,"lng":70.94,"label":"Qoqon","importance":4},{"lat":21.3304,"lng":105.43,"label":"Việt Trì","importance":4},{"lat":10.3804,"lng":105.42,"label":"Long Xuyen","importance":4},{"lat":52.3804,"lng":4.63,"label":"Haarlem","importance":4},{"lat":12.667,"lng":108.05,"label":"Buon Me Thuot","importance":4},{"lat":-9.07,"lng":-78.57,"label":"Chimbote","importance":4},{"lat":29.485,"lng":77.695,"label":"Muzaffarnagar","importance":4},{"lat":27.5,"lng":-99.55,"label":"Nuevo Laredo","importance":4},{"lat":35.3,"lng":47.02,"label":"Sanandaj","importance":4},{"lat":48.3192,"lng":14.2888,"label":"Linz","importance":4},{"lat":-25.4696,"lng":30.98,"label":"Mbombela","importance":4},{"lat":47.67,"lng":-117.4199,"label":"Spokane","importance":4},{"lat":21.3808,"lng":-77.9169,"label":"Camagüey","importance":4},{"lat":45.4404,"lng":10.99,"label":"Verona","importance":4},{"lat":42.97,"lng":-81.25,"label":"London","importance":4},{"lat":51.1811,"lng":71.4278,"label":"Nur-Sultan","importance":4},{"lat":8.4,"lng":-71.13,"label":"Mérida","importance":4},{"lat":50.4204,"lng":4.45,"label":"Charleroi","importance":4},{"lat":50.63,"lng":36.5999,"label":"Belgorod","importance":4},{"lat":13.17,"lng":32.66,"label":"Kosti","importance":4},{"lat":31.8416,"lng":47.1512,"label":"Al Amarah","importance":4},{"lat":36.3927,"lng":139.0727,"label":"Maebashi","importance":4},{"lat":55.46,"lng":65.345,"label":"Kurgan","importance":4},{"lat":33.6027,"lng":71.4327,"label":"Kohat","importance":4},{"lat":55.1887,"lng":30.1853,"label":"Vitsyebsk","importance":4},{"lat":-22.71,"lng":-47.64,"label":"Piracicaba","importance":4},{"lat":34.7368,"lng":127.7458,"label":"Yeosu","importance":4},{"lat":31.2804,"lng":72.325,"label":"Jhang","importance":4},{"lat":2.9614,"lng":99.0615,"label":"Pematangsiantar","importance":4},{"lat":-3.36,"lng":36.67,"label":"Arusha","importance":4},{"lat":-27.49,"lng":-58.81,"label":"Corrientes","importance":4},{"lat":37.41,"lng":140.38,"label":"Kōriyama","importance":4},{"lat":42.154,"lng":24.754,"label":"Plovdiv","importance":4},{"lat":-18.0,"lng":31.1,"label":"Chitungwiza","importance":4},{"lat":29.9804,"lng":103.08,"label":"Yaan","importance":4},{"lat":42.3004,"lng":123.82,"label":"Tieling","importance":4},{"lat":20.67,"lng":-101.5,"label":"Irapuato","importance":4},{"lat":54.5204,"lng":36.27,"label":"Kaluga","importance":4},{"lat":-32.97,"lng":27.87,"label":"East London","importance":4},{"lat":37.964,"lng":126.5644,"label":"Kaesong","importance":4},{"lat":43.6086,"lng":-116.2275,"label":"Boise","importance":4},{"lat":8.1,"lng":-63.6,"label":"Ciudad Bolívar","importance":4},{"lat":35.9177,"lng":139.4911,"label":"Kawagoe","importance":4},{"lat":27.6666,"lng":85.3333,"label":"Lalitpur","importance":4},{"lat":10.9337,"lng":108.1001,"label":"Phan Thiet","importance":4},{"lat":6.1133,"lng":100.3729,"label":"Alor Setar","importance":4},{"lat":28.47,"lng":-16.25,"label":"Santa Cruz de Tenerife","importance":4},{"lat":43.53,"lng":-5.67,"label":"Gijón","importance":4},{"lat":33.5624,"lng":133.5375,"label":"Kōchi","importance":4},{"lat":42.5225,"lng":-70.8831,"label":"Salem","importance":4},{"lat":-22.33,"lng":-49.08,"label":"Bauru","importance":4},{"lat":15.0,"lng":102.1,"label":"Nakhon Ratchasima","importance":4},{"lat":52.97,"lng":36.07,"label":"Orel","importance":4},{"lat":34.3447,"lng":134.0448,"label":"Takamatsu","importance":4},{"lat":28.79,"lng":-81.28,"label":"Sanford","importance":4},{"lat":26.1204,"lng":85.3799,"label":"Muzaffarpur","importance":4},{"lat":0.4904,"lng":29.45,"label":"Beni","importance":4},{"lat":36.7,"lng":137.23,"label":"Toyama","importance":4},{"lat":39.232,"lng":117.777,"label":"Hangu","importance":4},{"lat":14.4,"lng":33.52,"label":"Medani","importance":4},{"lat":-16.72,"lng":-43.86,"label":"Montes Claros","importance":4},{"lat":52.03,"lng":8.53,"label":"Bielefeld","importance":4},{"lat":-3.3761,"lng":29.36,"label":"Bujumbura","importance":4},{"lat":23.7304,"lng":114.68,"label":"Heyuan","importance":4},{"lat":27.5,"lng":77.67,"label":"Mathura","importance":4},{"lat":24.7504,"lng":90.38,"label":"Mymensingh","importance":4},{"lat":41.9,"lng":126.43,"label":"Baishan","importance":4},{"lat":30.3204,"lng":76.385,"label":"Patiala","importance":4},{"lat":39.1605,"lng":127.4308,"label":"Wonsan","importance":4},{"lat":52.3,"lng":76.95,"label":"Pavlodar","importance":4},{"lat":39.53,"lng":-119.82,"label":"Reno","importance":4},{"lat":-23.4095,"lng":-51.93,"label":"Maringá","importance":4},{"lat":23.8504,"lng":78.75,"label":"Sagar","importance":4},{"lat":-35.283,"lng":149.129,"label":"Canberra","importance":4},{"lat":43.59,"lng":39.73,"label":"Sochi","importance":4},{"lat":43.073,"lng":-89.4011,"label":"Madison","importance":4},{"lat":43.6104,"lng":3.87,"label":"Montpellier","importance":4},{"lat":-26.8996,"lng":-48.68,"label":"Itajaí","importance":4},{"lat":35.83,"lng":10.625,"label":"Sousse","importance":4},{"lat":47.1683,"lng":27.5749,"label":"Iași","importance":4},{"lat":19.32,"lng":84.8,"label":"Brahmapur","importance":4},{"lat":32.88,"lng":59.2199,"label":"Birjand","importance":4},{"lat":56.6354,"lng":47.8749,"label":"Yoshkar Ola","importance":4},{"lat":31.9182,"lng":131.4184,"label":"Miyazaki","importance":4},{"lat":37.6554,"lng":-120.99,"label":"Modesto","importance":4},{"lat":48.7948,"lng":44.7744,"label":"Volzhskiy","importance":4},{"lat":25.8004,"lng":113.0301,"label":"Chenzhou","importance":4},{"lat":41.65,"lng":-4.75,"label":"Valladolid","importance":4},{"lat":32.4907,"lng":45.8304,"label":"Al Kut","importance":4},{"lat":37.88,"lng":-4.77,"label":"Córdoba","importance":4},{"lat":54.7827,"lng":32.0473,"label":"Smolensk","importance":4},{"lat":-25.5167,"lng":-54.6161,"label":"Ciudad del Este","importance":4},{"lat":-31.75,"lng":-52.33,"label":"Pelotas","importance":4},{"lat":55.3804,"lng":37.5299,"label":"Podolsk","importance":4},{"lat":46.6325,"lng":32.6007,"label":"Kherson","importance":4},{"lat":27.8804,"lng":79.905,"label":"Shahjahanpur","importance":4},{"lat":-23.26,"lng":-47.3,"label":"Itu","importance":4},{"lat":13.17,"lng":123.75,"label":"Legazpi","importance":4},{"lat":39.71,"lng":140.09,"label":"Akita","importance":4},{"lat":10.5956,"lng":14.3247,"label":"Maroua","importance":4},{"lat":-16.3196,"lng":-48.96,"label":"Anápolis","importance":4},{"lat":20.1704,"lng":-98.73,"label":"Pachuca","importance":4},{"lat":39.78,"lng":64.43,"label":"Bukhara","importance":4},{"lat":68.97,"lng":33.1,"label":"Murmansk","importance":4},{"lat":42.3155,"lng":-83.0369,"label":"Windsor","importance":4},{"lat":20.8872,"lng":-76.2631,"label":"Holguín","importance":4},{"lat":49.99,"lng":82.6149,"label":"Oskemen","importance":4},{"lat":21.5054,"lng":-104.88,"label":"Tepic","importance":4},{"lat":56.13,"lng":40.4099,"label":"Vladimir","importance":4},{"lat":6.9964,"lng":100.4714,"label":"Hat Yai","importance":4},{"lat":49.574,"lng":34.5703,"label":"Poltava","importance":4},{"lat":28.6,"lng":77.2,"label":"New Delhi","importance":4},{"lat":10.45,"lng":-64.18,"label":"Cumaná","importance":4},{"lat":53.6779,"lng":23.8341,"label":"Hrodna","importance":4},{"lat":28.9,"lng":76.58,"label":"Rohtak","importance":4},{"lat":29.31,"lng":30.84,"label":"El Faiyum","importance":4},{"lat":46.7884,"lng":23.5984,"label":"Cluj-Napoca","importance":4},{"lat":10.3104,"lng":9.84,"label":"Bauchi","importance":4},{"lat":38.3512,"lng":-0.4836,"label":"Alicante","importance":4},{"lat":32.3804,"lng":48.47,"label":"Dezful","importance":4},{"lat":10.6004,"lng":-66.97,"label":"Maiquetía","importance":4},{"lat":4.5343,"lng":-75.6811,"label":"Armenia","importance":4},{"lat":45.7588,"lng":21.2234,"label":"Timișoara","importance":4},{"lat":46.0553,"lng":14.515,"label":"Ljubljana","importance":4},{"lat":42.4554,"lng":14.2187,"label":"Pescara","importance":4},{"lat":54.5204,"lng":18.53,"label":"Gdynia","importance":4},{"lat":15.1451,"lng":120.5451,"label":"Angeles","importance":4},{"lat":26.6804,"lng":119.5301,"label":"Ninde","importance":4},{"lat":24.0875,"lng":32.8989,"label":"Aswan","importance":4},{"lat":43.2156,"lng":27.8953,"label":"Varna","importance":4},{"lat":50.3505,"lng":7.6,"label":"Koblenz","importance":4},{"lat":41.0997,"lng":-80.6497,"label":"Youngstown","importance":4},{"lat":59.1404,"lng":37.91,"label":"Cherepovets","importance":4},{"lat":37.8373,"lng":68.7713,"label":"Qurghonteppa","importance":4},{"lat":50.435,"lng":80.275,"label":"Semey","importance":4},{"lat":45.4559,"lng":28.0459,"label":"Galați","importance":4},{"lat":45.6475,"lng":25.6072,"label":"Brașov","importance":4},{"lat":21.4704,"lng":83.9701,"label":"Sambalpur","importance":4},{"lat":-8.3689,"lng":-74.535,"label":"Pucallpa","importance":4},{"lat":-23.65,"lng":-70.4,"label":"Antofagasta","importance":4},{"lat":36.0,"lng":-78.92,"label":"Durham","importance":4},{"lat":5.8904,"lng":5.68,"label":"Sapele","importance":4},{"lat":35.3304,"lng":40.13,"label":"Dayr az Zawr","importance":4},{"lat":52.055,"lng":113.465,"label":"Chita","importance":4},{"lat":10.48,"lng":-73.25,"label":"Valledupar","importance":4},{"lat":-14.85,"lng":-40.84,"label":"Vitória da Conquista","importance":4},{"lat":-19.85,"lng":47.0333,"label":"Antsirabe","importance":4},{"lat":43.4981,"lng":43.6179,"label":"Nalchik","importance":4},{"lat":51.5049,"lng":31.3015,"label":"Chernihiv","importance":4},{"lat":23.3504,"lng":75.03,"label":"Ratlam","importance":4},{"lat":35.0204,"lng":-5.91,"label":"Ksar El Kebir","importance":4},{"lat":4.271,"lng":117.896,"label":"Tawau","importance":4},{"lat":27.15,"lng":78.3949,"label":"Firozabad","importance":4},{"lat":-8.75,"lng":-63.9,"label":"Porto Velho","importance":4},{"lat":-24.1833,"lng":-65.3,"label":"San Salvador de Jujuy","importance":4},{"lat":-20.53,"lng":-47.39,"label":"Franca","importance":4},{"lat":17.0303,"lng":81.79,"label":"Rajahmundry","importance":4},{"lat":14.8296,"lng":120.2828,"label":"Olongapo","importance":4},{"lat":44.3263,"lng":23.8259,"label":"Craiova","importance":4},{"lat":24.47,"lng":32.95,"label":"Kom Ombo","importance":4},{"lat":10.42,"lng":-67.02,"label":"Los Teques","importance":4},{"lat":44.2027,"lng":28.61,"label":"Constanța","importance":4},{"lat":54.1704,"lng":45.18,"label":"Saransk","importance":4},{"lat":23.3619,"lng":103.4061,"label":"Mengzi","importance":4},{"lat":40.685,"lng":46.35,"label":"Ganca","importance":4},{"lat":41.795,"lng":140.74,"label":"Hakodate","importance":4},{"lat":50.83,"lng":12.92,"label":"Chemnitz","importance":4},{"lat":53.7504,"lng":-0.33,"label":"Kingston upon Hull","importance":4},{"lat":37.8904,"lng":41.14,"label":"Batman","importance":4},{"lat":26.1505,"lng":32.72,"label":"Qena","importance":4},{"lat":23.2504,"lng":87.865,"label":"Barddhaman","importance":4},{"lat":0.4404,"lng":33.1999,"label":"Jinja","importance":4},{"lat":32.58,"lng":74.08,"label":"Gujrat","importance":4},{"lat":52.73,"lng":41.43,"label":"Tambov","importance":4},{"lat":52.1,"lng":23.7,"label":"Brest","importance":4},{"lat":34.2,"lng":72.04,"label":"Mardan","importance":4},{"lat":17.9229,"lng":77.5175,"label":"Bidar","importance":4},{"lat":10.0154,"lng":105.0914,"label":"Rạch Giá","importance":4},{"lat":9.6037,"lng":105.98,"label":"Sóc Trăng","importance":4},{"lat":44.8,"lng":65.465,"label":"Qyzylorda","importance":4},{"lat":6.4833,"lng":2.6166,"label":"Porto-Novo","importance":4},{"lat":-20.3162,"lng":57.5166,"label":"Curepipe","importance":4},{"lat":41.0804,"lng":-85.13,"label":"Fort Wayne","importance":4},{"lat":40.9732,"lng":126.6032,"label":"Kanggye","importance":4},{"lat":33.7476,"lng":44.6573,"label":"Baqubah","importance":4},{"lat":31.4204,"lng":31.82,"label":"Dumyat","importance":4},{"lat":-8.1727,"lng":113.6873,"label":"Jember","importance":4},{"lat":25.4291,"lng":49.5659,"label":"Al Mubarraz","importance":4},{"lat":24.1556,"lng":47.312,"label":"Al Kharj","importance":4},{"lat":40.825,"lng":140.71,"label":"Aomori","importance":4},{"lat":48.3053,"lng":25.9216,"label":"Chernivtsi","importance":4},{"lat":36.5804,"lng":36.17,"label":"İskenderun","importance":4},{"lat":49.4347,"lng":32.0709,"label":"Cherkasy","importance":4},{"lat":33.9419,"lng":-117.398,"label":"Riverside","importance":4},{"lat":4.8833,"lng":114.9333,"label":"Bandar Seri Begawan","importance":4},{"lat":28.8154,"lng":79.025,"label":"Rampur","importance":4},{"lat":43.0129,"lng":-83.6875,"label":"Flint","importance":4},{"lat":39.72,"lng":141.13,"label":"Morioka","importance":4},{"lat":33.42,"lng":43.3,"label":"Ar Ramadi","importance":4},{"lat":10.652,"lng":-61.517,"label":"Port-of-Spain","importance":4},{"lat":59.21,"lng":39.92,"label":"Vologda","importance":4},{"lat":50.9243,"lng":34.7809,"label":"Sumy","importance":4},{"lat":51.63,"lng":-3.95,"label":"Swansea","importance":4},{"lat":37.74,"lng":140.47,"label":"Fukushima","importance":4},{"lat":-26.92,"lng":-49.09,"label":"Blumenau","importance":4},{"lat":14.8104,"lng":-16.93,"label":"Thiès","importance":4},{"lat":16.9675,"lng":82.2375,"label":"Kakinada","importance":4},{"lat":29.4004,"lng":76.97,"label":"Panipat","importance":4},{"lat":7.73,"lng":8.53,"label":"Makurdi","importance":4},{"lat":-25.09,"lng":-50.16,"label":"Ponta Grossa","importance":4},{"lat":9.62,"lng":6.55,"label":"Minna","importance":4},{"lat":53.1504,"lng":23.17,"label":"Białystok","importance":4},{"lat":-8.89,"lng":33.43,"label":"Mbeya","importance":4},{"lat":39.2224,"lng":9.104,"label":"Cagliari","importance":4},{"lat":18.2015,"lng":-67.1397,"label":"Mayagüez","importance":4},{"lat":17.2804,"lng":80.1601,"label":"Khammam","importance":4},{"lat":5.4904,"lng":10.4099,"label":"Bafoussam","importance":4},{"lat":31.1254,"lng":74.455,"label":"Kasur","importance":4},{"lat":47.21,"lng":123.61,"label":"Hulan Ergi","importance":4},{"lat":51.3,"lng":9.5,"label":"Kassel","importance":4},{"lat":-22.5495,"lng":-47.4,"label":"Limeira","importance":4},{"lat":48.4333,"lng":-123.35,"label":"Victoria","importance":4},{"lat":23.2504,"lng":69.81,"label":"Bhuj","importance":4},{"lat":23.08,"lng":114.4,"label":"Huizhou","importance":4},{"lat":18.4604,"lng":79.11,"label":"Karimnagar","importance":4},{"lat":40.0859,"lng":124.4213,"label":"Sinuiju","importance":4},{"lat":-36.7167,"lng":-73.1167,"label":"Talcahuano","importance":4},{"lat":27.4666,"lng":-109.925,"label":"Ciudad Obregon","importance":4},{"lat":42.2704,"lng":-71.8,"label":"Worcester","importance":4},{"lat":18.1204,"lng":-94.42,"label":"Coatzacoalcos","importance":4},{"lat":13.6504,"lng":79.42,"label":"Tirupati","importance":4},{"lat":-2.9,"lng":-79.0,"label":"Cuenca","importance":4},{"lat":40.7667,"lng":30.4,"label":"Sakarya","importance":4},{"lat":35.2229,"lng":-89.8411,"label":"Barlett","importance":4},{"lat":0.13,"lng":29.28,"label":"Butembo","importance":4},{"lat":4.9433,"lng":-1.704,"label":"Sekondi","importance":4},{"lat":-22.5095,"lng":-43.2,"label":"Petrópolis","importance":4},{"lat":15.2804,"lng":76.375,"label":"Hosapete","importance":4},{"lat":25.75,"lng":89.28,"label":"Rangpur","importance":4},{"lat":30.5833,"lng":31.5167,"label":"Zagazig","importance":4},{"lat":12.5704,"lng":76.92,"label":"Mandya","importance":4},{"lat":17.32,"lng":96.515,"label":"Bago","importance":4},{"lat":8.6,"lng":-70.25,"label":"Barinas","importance":4},{"lat":-9.4647,"lng":147.1925,"label":"Port Moresby","importance":4},{"lat":35.941,"lng":126.9454,"label":"Iksan","importance":4},{"lat":27.5454,"lng":76.6049,"label":"Alwar","importance":4},{"lat":10.9587,"lng":123.3086,"label":"Cadiz","importance":4},{"lat":36.535,"lng":-6.225,"label":"Cádiz","importance":4},{"lat":23.7104,"lng":92.72,"label":"Aizawl","importance":4},{"lat":-10.1787,"lng":123.583,"label":"Kupang","importance":4},{"lat":35.08,"lng":109.03,"label":"Tongchuan","importance":4},{"lat":50.2456,"lng":28.6622,"label":"Zhytomyr","importance":4},{"lat":41.03,"lng":113.08,"label":"Jining","importance":4},{"lat":36.1054,"lng":-80.26,"label":"Winston-Salem","importance":4},{"lat":-38.74,"lng":-62.265,"label":"Bahía Blanca","importance":4},{"lat":19.7592,"lng":-72.2125,"label":"Cap-Haïtien","importance":4},{"lat":-1.2696,"lng":-78.62,"label":"Ambato","importance":4},{"lat":36.8303,"lng":54.48,"label":"Gorgan","importance":4},{"lat":35.57,"lng":6.17,"label":"Batna","importance":4},{"lat":31.5406,"lng":35.0956,"label":"Al Khalil","importance":4},{"lat":40.7004,"lng":-74.17,"label":"Newark","importance":4},{"lat":-18.0,"lng":-70.25,"label":"Tacna","importance":4},{"lat":11.2504,"lng":125.0,"label":"Tacloban","importance":4},{"lat":42.7335,"lng":-84.5467,"label":"Lansing","importance":4},{"lat":38.4104,"lng":112.72,"label":"Xinzhou","importance":4},{"lat":7.2169,"lng":124.2484,"label":"Cotabato","importance":4},{"lat":41.0208,"lng":40.5219,"label":"Rize","importance":4},{"lat":-14.068,"lng":-75.7255,"label":"Ica","importance":4},{"lat":40.58,"lng":49.63,"label":"Sumqayt","importance":4},{"lat":47.23,"lng":38.92,"label":"Taganrog","importance":4},{"lat":14.15,"lng":-16.1,"label":"Kaolack","importance":4},{"lat":57.77,"lng":40.94,"label":"Kostroma","importance":4},{"lat":27.7428,"lng":-97.4019,"label":"Corpus Christi","importance":4},{"lat":7.2004,"lng":5.59,"label":"Owo","importance":4},{"lat":-6.9096,"lng":106.9,"label":"Sukabumi","importance":4},{"lat":50.555,"lng":137.02,"label":"Komsomolsk na Amure","importance":4},